,usaf,name,state,lat,lon,min_temp,mean_temp,max_temp,total_snow,total_precipitation,tornado_funnel_cloud,hail,severity_rating
2000,704540,ADAK (NAS)                   ,AK,51.883,-176.65,12.9,41.95741758241758,69.1,0.0,292.41999999999996,0.0,0.0,0.0
682,997380,ADAK ISLAND,AK,51.87,-176.63,18.7,42.01525423728814,64.9,0.0,0.0,0.0,0.0,0.0
738,703926,AKHIOK,AK,56.933,-154.183,8.1,37.40188679245283,71.1,0.0,309.25,0.0,0.0,0.0
547,702686,AKIAK,AK,60.903,-161.231,-20.0,34.42797619047619,75.9,0.0,12201.679999999998,0.0,0.0,0.0
13,999999,ALEKNAGIK 1 NNE              ,AK,59.284,-158.615,-57.1,52.81663803779,122.4,0.0,490294229.5272944,0.0,0.0,0.0
487,998221,ALITAK,AK,56.9,-154.25,9.5,42.58507042253521,64.0,0.0,0.0,0.0,0.0,0.0
2419,702670,ALLEN ARMY AIRFIELD,AK,63.994,-145.721,-38.9,30.66712328767123,84.9,0.0,108.29,0.0,0.0,0.0
854,702758,ALPINE AIRSTRIP,AK,70.344,-150.945,-52.6,14.63939393939394,71.6,0.0,31596.839999999993,0.0,0.0,0.0
806,701718,AMBLER AIRPORT,AK,67.1,-157.85,-43.6,25.84,81.0,0.0,424.92,0.0,0.0,0.0
834,701625,ANAKTUVUK PASS AIRPORT,AK,68.167,-151.767,-43.1,18.017679558011046,75.9,0.0,10.2,0.0,0.0,0.0
645,997381,ANCHORAGE,AK,61.23,-149.88,-6.7,38.72735042735042,73.8,0.0,0.0,0.0,0.0,0.0
2178,703830,ANGOON SEAPLANE BASE,AK,57.499,-134.586,5.0,43.113461538461536,75.0,0.0,144.73000000000005,0.0,0.0,0.0
1897,702320,ANIAK,AK,61.583,-159.533,-40.0,33.37988668555241,80.1,0.0,833.4599999999999,0.0,0.0,0.0
839,702075,ANVIK AIRPORT,AK,62.65,-160.183,-27.9,31.164589235127476,82.0,0.0,21.300000000000008,0.0,0.0,0.0
835,701945,ARCTIC VILLAGE AIRPORT,AK,68.115,-145.579,-47.9,17.89224137931034,81.0,0.0,417.75999999999993,0.0,0.0,0.0
488,998224,ATKA,AK,52.233,-174.167,21.4,42.29691011235955,62.2,0.0,0.0,0.0,0.0,0.0
817,A00032,ATKA AIRPORT,AK,52.22,-174.206,28.9,40.928000000000004,50.0,0.0,100.8,0.0,0.0,0.0
769,702685,ATQASUK EDWARD BURNELL SR. ME,AK,70.467,-157.436,-45.9,15.310714285714287,75.9,0.0,302.6,0.0,0.0,0.0
1842,994700,AUGUSTINE ISLAND,AK,59.38,-153.35,-2.7,40.755616438356164,71.6,0.0,0.0,0.0,0.0,0.0
1889,700860,BARTER ISLAND,AK,70.133,-143.633,-43.1,11.199044585987263,69.1,0.0,12400.219999999998,0.0,0.0,0.0
526,998178,BARTLET COVE,AK,58.45,-135.883,10.6,43.853125000000006,76.5,0.0,0.0,0.0,0.0,0.0
2431,702190,BETHEL AIRPORT,AK,60.785,-161.829,-26.0,32.80602739726027,82.0,0.0,21.740000000000002,0.0,0.0,0.0
2430,701740,BETTLES AIRPORT,AK,66.918,-151.519,-51.0,25.466849315068487,84.9,5199.600000000001,16.03,0.0,0.0,0.0
852,702746,BIRCHWOOD AIRPORT,AK,61.416,-149.507,-16.1,37.9967032967033,80.1,0.0,3835.9599999999996,0.0,0.0,0.0
1847,994680,BLIGH REEF LIGHT,AK,60.84,-146.88,13.8,43.6717808219178,64.9,0.0,0.0,0.0,0.0,0.0
497,701196,BOB BARKER MEMORIAL AIRPORT,AK,66.983,-160.433,-43.1,25.25921787709497,77.0,0.0,221.41999999999996,0.0,0.0,0.0
130,702700,BRYANT ARMY AIRFIELD HELIPORT,AK,61.266,-149.653,-25.6,36.048169014084515,81.3,0.0,6316.360000000001,0.0,0.0,0.0
826,700632,BUCKLAND AIRPORT,AK,65.983,-161.133,-45.9,25.82598870056497,78.8,0.0,607.7599999999999,0.0,0.0,0.0
1724,701995,CAPE DARBY REMOT COM OUTLT,AK,64.55,-163.007,-32.1,29.773684210526312,75.9,0.0,216.46000000000006,0.0,0.0,0.0
603,997788,CAPE DECISION,AK,56.0,-134.133,15.8,45.87103064066852,72.1,0.0,0.0,0.0,0.0,0.0
821,703050,CAPE HEWENHAM LRRS AIRPORT,AK,58.65,-162.067,-9.6,36.81841359773371,70.9,38.6,4676.46,0.0,0.0,0.0
828,701040,CAPE LISBURNE LRRS AIRPORT,AK,68.867,-166.133,-31.0,22.151032448377578,63.1,211.6,8609.88,0.0,0.0,0.0
840,702120,CAPE ROMANZOF LRRS ARPT,AK,61.783,-166.033,-13.4,31.199178082191782,69.8,83.7,11785.829999999996,0.0,0.0,0.0
610,997804,CAPE SPENCER,AK,58.2,-136.633,12.9,43.28873626373626,72.3,0.0,0.0,0.0,0.0,0.0
430,701338,CHEVAK AIRPORT,AK,61.533,-165.583,-22.0,30.295072463768115,78.1,0.0,6399.359999999999,0.0,0.0,0.0
862,703333,CHIGNIK AIRPORT,AK,56.311,-158.373,21.9,45.81284403669724,69.1,0.0,28197.179999999997,0.0,0.0,0.0
848,702606,CHULITNA,AK,62.826,-149.907,-7.6,24.352830188679246,55.4,14721.2,8199.179999999998,0.0,0.0,0.0
2490,703160,COLD BAY AIRPORT,AK,55.221,-162.732,3.9,40.35506849315068,69.1,0.0,140.96,0.0,0.0,0.0
333,998425,CORDOVA,AK,60.557,-145.755,12.9,42.754366197183096,68.0,0.0,0.0,0.0,0.0,0.0
2168,700637,DEADHORSE AIRPORT,AK,70.192,-148.477,-54.0,14.278021978021977,75.0,0.0,3805.129999999999,0.0,0.0,0.0
2082,701333,DEERING AIRPORT,AK,66.069,-162.764,-42.0,30.372614107883816,72.0,0.0,13.479999999999999,0.0,0.0,0.0
860,703210,DILLINGHAM AIRPORT,AK,59.05,-158.517,-25.6,36.65945205479452,79.0,0.0,251.5999999999999,0.0,0.0,0.0
481,704890,DUTCH HARBOR AIRPORT,AK,53.895,-166.543,15.1,42.40164383561645,73.9,47.8,20440.5,0.0,0.0,0.0
836,701975,EAGLE AIRPORT,AK,64.777,-141.148,-59.1,26.53659217877095,88.0,0.0,22.98,0.0,0.0,0.0
1727,704140,EARECKSON AIR STATION AIRPORT,AK,52.717,174.1,20.3,41.16552706552706,58.3,44.0,2892.7000000000007,0.0,12.0,12.0
863,703334,EGEGIK AIRPORT,AK,58.185,-157.386,-11.0,36.48164251207729,73.9,0.0,612.4600000000002,0.0,0.0,0.0
802,702650,EIELSON AFB AIRPORT,AK,64.683,-147.083,-49.2,27.40931506849315,83.8,8622.6,820.3199999999997,0.0,2.0,2.0
532,997789,ELDRED ROCK,AK,58.967,-135.217,8.2,43.816208791208794,79.5,0.0,0.0,0.0,0.0,0.0
499,998206,ELFIN COVE,AK,58.183,-136.333,12.6,43.32203389830509,76.1,0.0,0.0,0.0,0.0,0.0
867,703817,ELFIN COVE SEAPLANE BASE,AK,58.192,-136.344,24.8,49.38691983122362,75.2,316.0,1944.62,0.0,0.0,0.0
119,703891,ELIM AIRPORT,AK,64.617,-162.267,-20.0,30.882985074626863,77.0,0.0,15.97,0.0,0.0,0.0
851,702720,ELMENDORF AFB AIRPORT,AK,61.253,-149.794,-18.9,38.27287671232877,79.7,3654.6000000000004,1038.72,0.0,0.0,0.0
807,702084,EMMONAK,AK,62.785,-164.491,35.1,51.18,73.0,0.0,199.98,0.0,0.0,0.0
2415,702610,FAIRBANKS INTERNATIONAL,AK,64.804,-147.876,-47.0,29.657808219178083,86.0,4368.2,10.440000000000001,0.0,0.0,0.0
2167,700638,FALSE PASS,AK,54.85,-163.417,10.0,41.44595588235295,70.0,0.0,2218.41,0.0,0.0,0.0
1829,994720,FLAT ISLAND LIGHT,AK,59.33,-151.99,10.4,42.07205479452055,66.2,0.0,0.0,0.0,0.0,0.0
1884,701940,FORT YUKON,AK,66.567,-145.267,-53.0,23.50520547945206,84.9,0.0,2407.6999999999994,0.0,0.0,0.0
783,700635,GALBRAITH LAKE AIRPORT,AK,68.479,-149.49,-47.2,12.136585365853659,68.0,0.0,1599.84,0.0,0.0,0.0
842,702220,GALENA AIRPORT,AK,64.737,-156.934,-45.9,26.529392971246008,82.0,0.0,15.92,0.0,0.0,0.0
2008,702040,GAMBELL (AWOS)               ,AK,63.767,-171.733,-5.1,30.590909090909086,55.9,0.0,8000.059999999999,0.0,0.0,0.0
2432,702710,GULKANA AIRPORT,AK,62.159,-145.459,-47.9,30.076438356164385,84.0,0.0,24.46,0.0,0.0,0.0
2062,703670,GUSTAVUS,AK,58.425,-135.707,-15.0,42.34364640883978,80.1,0.0,284.96000000000004,0.0,0.0,0.0
2098,703626,HAINES,AK,59.243,-135.509,-6.0,42.74820936639118,88.0,0.0,56.29,0.0,0.0,0.0
856,703051,HOLY CROSS AIRPORT,AK,62.183,-159.767,-36.0,36.72200772200773,82.9,0.0,221.83999999999997,0.0,0.0,0.0
2175,703410,HOMER AIRPORT,AK,59.642,-151.491,-2.0,41.1241095890411,73.0,0.0,26.219999999999995,0.0,0.0,0.0
147,997176,HOMER SPIT,AK,59.602,-151.417,9.3,42.48849315068494,64.4,0.0,0.0,0.0,0.0,0.0
1511,702607,HOONAH SEAPLANE BASE,AK,58.096,-135.409,8.1,36.00000000000001,63.0,0.0,2234.0599999999995,0.0,0.0,0.0
841,702186,HOOPER BAY AIRPORT,AK,61.524,-166.147,-22.0,30.83062200956938,68.0,0.0,10199.22,0.0,0.0,0.0
822,703655,HUSLIA AIRPORT,AK,65.698,-156.351,-51.0,27.864931506849317,82.9,0.0,20.78,0.0,0.0,0.0
1512,703884,HYDABURG SEAPLANE BASE,AK,55.206,-132.828,9.0,46.23539325842695,75.9,0.0,3157.64,0.0,0.0,0.0
148,997177,ICY BAY,AK,59.923,-141.359,40.1,46.86,54.9,0.0,0.0,0.0,0.0,0.0
859,703061,IGIUGIG AIRPORT,AK,59.324,-155.902,-23.1,35.95240963855422,81.0,0.0,236.10000000000002,0.0,0.0,0.0
2174,703400,ILIAMNA AIRPORT,AK,59.749,-154.909,-29.9,37.37013698630137,80.1,1598.6999999999998,34.12,0.0,0.0,0.0
1723,701730,INDIAN MOUNTAIN LRRS ARPT,AK,66.0,-153.7,-33.3,27.580285714285715,79.3,234.2,24429.919999999995,0.0,0.0,0.0
376,998261,JUNEAU,AK,58.298,-134.412,4.5,42.96507042253521,82.9,0.0,0.0,0.0,0.0,0.0
2177,703810,JUNEAU INTERNATIONAL,AK,58.357,-134.564,-8.0,43.29534246575343,84.9,431.30000000000007,88.57999999999998,0.0,0.0,0.0
869,703855,KAKE AIRPORT,AK,56.967,-133.9,6.1,44.2185393258427,79.0,0.0,307.41999999999996,0.0,0.0,0.0
781,703052,KALSKAG AIRPORT,AK,61.536,-160.341,-24.0,33.80947368421052,81.0,0.0,37.13999999999999,0.0,0.0,0.0
838,702006,KALTAG AIRPORT,AK,64.327,-158.742,-43.1,26.172077922077925,88.0,0.0,30.480000000000004,0.0,0.0,0.0
2172,702590,KENAI MUNICIPAL AIRPORT,AK,60.58,-151.239,-31.0,36.68630136986302,78.1,0.0,13.45,0.0,0.0,0.0
374,998258,KETCHIKAN,AK,55.333,-131.625,10.6,46.30842696629213,76.5,0.0,0.0,0.0,0.0,0.0
2179,703950,KETCHIKAN INTL AIRPORT,AK,55.36,-131.721,3.0,46.25780821917809,78.1,0.0,155.32999999999998,0.0,0.0,0.0
379,998254,KING COVE,AK,55.067,-162.333,10.9,41.5563025210084,60.8,0.0,0.0,0.0,0.0,0.0
1697,703059,KING COVE,AK,55.17,-162.27,3.9,40.613850415512466,64.9,0.0,14098.999999999998,0.0,0.0,0.0
2493,703260,KING SALMON AIRPORT,AK,58.683,-156.656,-22.0,37.70934065934066,80.1,0.0,132.04999999999998,0.0,0.0,0.0
833,701486,KIVALINA AIRPORT,AK,67.732,-164.548,-38.9,25.314801444043322,70.0,0.0,416.36000000000007,0.0,0.0,0.0
2065,703894,KLAWOCK AIRPORT,AK,55.58,-133.075,3.9,45.70165289256199,78.1,0.0,971.1399999999999,0.0,0.0,0.0
2434,703500,KODIAK AIRPORT,AK,57.751,-152.486,12.0,44.02164383561644,77.0,0.0,81.69,0.0,0.0,0.0
334,998427,KODIAK ISLAND,AK,57.73,-152.514,11.5,43.30788732394367,73.4,0.0,0.0,0.0,0.0,0.0
550,703925,KOLIGANEK,AK,59.73,-157.26,-17.0,35.83475783475784,81.0,0.0,4837.68,0.0,0.0,0.0
843,702223,KOYUK AIRPORT,AK,64.935,-161.155,-22.0,31.76477987421384,81.0,0.0,1229.9,0.0,0.0,0.0
1851,702725,LAKE HOOD SEAPLANE BASE,AK,61.178,-149.966,-14.1,38.75730027548209,79.0,0.0,49.279999999999994,0.0,0.0,0.0
386,998172,LINCOLN ROCK,AK,56.05,-132.7,13.6,47.16978021978022,74.5,0.0,0.0,0.0,0.0,0.0
2481,702960,M.K.(MUDHOLE) SMITH ARPT,AK,60.489,-145.451,-9.9,41.80958904109589,80.1,775.9,96.66000000000001,0.0,0.0,0.0
537,703055,MANOKOTAK,AK,58.99,-159.05,-9.0,41.23670886075949,78.1,0.0,439.6999999999999,0.0,0.0,0.0
145,997178,MARMION ISLAND,AK,58.198,-134.257,7.5,43.82438356164385,77.2,0.0,0.0,0.0,0.0,0.0
546,702628,MARSHALL DON HUNTER SR,AK,61.864,-162.026,-24.0,34.463976945244966,81.0,0.0,23.82,0.0,0.0,0.0
146,997179,MARY ISLAND,AK,55.099,-131.182,14.0,46.73416666666667,78.3,0.0,0.0,0.0,0.0,0.0
2170,702310,MCGRATH AIRPORT,AK,62.957,-155.61,-47.9,30.004871060171922,82.4,1310.8,519.08,0.0,0.0,0.0
849,702645,MCKINLEY NATIONAL PARK AIRPOR,AK,63.733,-148.917,-44.0,26.6495145631068,82.0,0.0,213.9,0.0,0.0,0.0
1899,702735,MERRILL FLD,AK,61.2,-149.833,-17.0,39.27753424657534,81.0,2908.2000000000003,43.99999999999999,0.0,0.0,0.0
818,703985,METLAKATLA SEAPLANE BASE,AK,55.131,-131.578,14.0,44.268722466960355,75.0,0.0,1098.6799999999994,0.0,0.0,0.0
1846,994670,MIDDLE ROCK LIGHT,AK,61.08,-146.66,7.5,40.197260273972596,69.1,0.0,0.0,0.0,0.0,0.0
2017,703430,MIDDLETON ISLAND,AK,59.433,-146.333,17.1,44.0760989010989,70.0,0.0,56718.14999999994,0.0,0.0,0.0
1890,702460,MINCHUMINA,AK,63.9,-152.267,-38.9,29.941551246537394,82.4,0.0,21.92,0.0,0.0,0.0
858,703056,MOUNTAIN VILLAGE AIRPORT,AK,62.095,-163.682,-22.0,21.403649635036494,68.0,0.0,602.4399999999999,0.0,0.0,0.0
2103,702195,NAPAKIAK,AK,60.683,-161.983,-25.1,28.965055762081786,71.1,0.0,708.8400000000001,0.0,0.0,0.0
576,703058,NELSON LAGOON,AK,56.01,-161.16,3.9,38.683132530120474,64.9,0.0,20798.279999999995,0.0,0.0,0.0
1898,702600,NENANA/MUN.                  ,AK,64.55,-149.083,-50.1,29.64109589041096,82.0,0.0,24.72,0.0,0.0,0.0
548,702697,NEW STUYAHOK,AK,59.45,-157.33,-27.9,35.74460227272727,81.0,0.0,42.67999999999999,0.0,0.0,0.0
684,997382,NIKISKI AK,AK,60.68,-151.4,-5.4,39.7422969187675,70.5,0.0,0.0,0.0,0.0,0.0
545,702625,NIKOLAI,AK,63.02,-154.36,-41.8,30.86299694189602,84.2,0.0,2430.8999999999996,0.0,0.0,0.0
832,701335,NOATAK AIRPORT,AK,67.566,-162.975,-44.0,22.193939393939395,73.9,0.0,215.82,0.0,0.0,0.0
318,998429,NOKOLSKI,AK,52.941,-168.871,18.5,41.52485875706214,57.4,0.0,0.0,0.0,0.0,0.0
2515,702000,NOME AIRPORT,AK,64.511,-165.44,-25.1,30.509589041095886,73.0,0.0,22.34,0.0,0.0,0.0
685,997383,NOME NORTON SOUND,AK,64.5,-165.42,-21.1,30.54775280898877,70.0,0.0,0.0,0.0,0.0,0.0
2433,702910,NORTHWAY AIRPORT,AK,62.962,-141.988,-59.1,25.320547945205483,82.9,3660.6999999999994,10.409999999999998,0.0,1.0,1.0
866,703644,NUIQSUT AIRPORT,AK,70.212,-151.002,-54.9,14.507438016528925,73.9,0.0,3007.7999999999997,0.0,0.0,0.0
2086,702740,PALMER MUNICIPAL AIRPORT,AK,61.596,-149.092,-16.1,39.69150684931507,82.0,0.0,46.300000000000004,0.0,0.0,0.0
2057,703860,PETERSBURG,AK,56.817,-132.967,-0.9,43.250136986301364,79.0,7.8,391.4,0.0,0.0,0.0
746,702626,PILOT POINT,AK,57.58,-157.58,-4.0,40.29413580246914,77.0,0.0,1411.4399999999998,0.0,0.0,0.0
779,703605,PLATINUM AIRPORT,AK,59.011,-161.82,-17.0,36.27382352941176,68.0,0.0,827.5199999999998,0.0,0.0,0.0
669,997796,POINT BISHOP,AK,58.2,-134.133,4.3,42.527747252747254,75.4,0.0,0.0,0.0,0.0,0.0
1513,701043,POINT HOPE AIRPORT,AK,68.35,-166.8,-27.9,21.075649350649346,54.0,0.0,19415.619999999995,0.0,0.0,0.0
831,701210,POINT LAY LRRS AIRPORT,AK,69.733,-163.005,-50.8,17.31191135734072,77.0,0.0,58494.269999999946,0.0,0.0,0.0
607,997797,POINT RETREAT,AK,58.4,-134.95,12.2,43.95824175824177,78.1,0.0,0.0,0.0,0.0,0.0
382,998341,PORT ALEXANDER,AK,56.247,-134.647,16.7,45.03408450704225,77.0,0.0,0.0,0.0,0.0,0.0
1726,703406,PORT ALSWORTH AIRPORT,AK,60.204,-154.316,-22.0,42.212132352941175,82.4,0.0,21397.86,0.0,0.0,0.0
2165,701190,PORT CLARENCE CGS,AK,65.254,-166.859,53.6,55.8,57.2,0.0,99.99,0.0,0.0,0.0
861,703330,PORT HEIDEN AIRPORT,AK,56.959,-158.632,-8.0,39.00791788856305,71.1,0.0,2628.3799999999997,0.0,0.0,0.0
824,700001,PORTAGE GLACIER,AK,60.785,-148.839,-18.9,38.07194444444444,73.0,0.0,193.88000000000002,0.0,0.0,0.0
1848,994660,POTATO POINT,AK,61.06,-146.7,8.8,41.18,69.8,0.0,0.0,0.0,0.0,0.0
2163,701748,PROSPECT CREEK AIRPORT,AK,66.817,-150.65,-32.8,22.987499999999997,66.2,0.0,999.8999999999999,0.0,0.0,0.0
668,997386,PRUDHOE BAY,AK,70.4,-148.52,-39.6,13.564655172413794,65.8,0.0,0.0,0.0,0.0,0.0
846,702490,PUNTILLA LAKE,AK,62.091,-152.735,-27.4,32.636119402985074,77.0,7887.400000000001,10613.66,0.0,0.0,0.0
98,703656,QUINHAGAK AIRPORT,AK,59.75,-161.833,-32.8,35.6764,80.1,0.0,2005.0999999999997,0.0,0.0,0.0
2447,701780,RALPH M CALHOUN MEML ARPT,AK,65.175,-152.107,-47.9,27.519613259668507,86.0,3629.5,110.40999999999997,0.0,0.0,0.0
2169,701330,RALPH WIEN MEMORIAL AIRPORT,AK,66.867,-162.633,-44.0,23.005753424657534,69.1,0.0,13.150000000000004,0.0,0.0,0.0
786,701045,RED DOG AIRPORT,AK,68.031,-162.903,-25.6,27.381707317073175,73.4,0.0,21797.82,0.0,0.0,0.0
652,997704,RED DOG DOCK,AK,67.57,-164.65,-28.3,27.796894409937888,72.5,0.0,0.0,0.0,0.0,0.0
251,704898,ROBERT (BOB) CURTIS MEMORIAL,AK,66.818,-161.022,-47.9,26.35775862068965,78.1,0.0,14.34,0.0,0.0,0.0
759,702627,RUBY AIRPORT,AK,64.727,-155.47,-32.1,30.73314121037464,81.0,0.0,11.01,0.0,0.0,0.0
857,703053,RUSSIAN MISSION AIRPORT,AK,61.775,-161.319,-38.2,34.010526315789484,82.0,0.0,1619.54,0.0,0.0,0.0
385,998243,SAND POINT,AK,55.333,-160.5,10.9,42.016949152542374,62.4,0.0,0.0,0.0,0.0,0.0
1725,703165,SAND POINT AIRPORT,AK,55.319,-160.521,10.0,42.2358904109589,66.9,0.0,44196.299999999974,0.0,0.0,0.0
782,702035,SAVOONGA AIRPORT,AK,63.687,-170.493,-23.1,28.96210526315789,64.0,0.0,5000.659999999999,0.0,0.0,0.0
549,703054,SCAMMON BAY,AK,61.845,-165.571,-18.9,37.21594827586207,73.9,0.0,19198.079999999998,0.0,0.0,0.0
825,700197,SELAWIK,AK,66.6,-159.986,-45.9,24.62997198879552,77.0,0.0,3805.88,0.0,0.0,0.0
865,703621,SELDOVIA AIRPORT,AK,59.443,-151.702,0.0,40.828493150684935,75.0,0.0,84.06,0.0,0.0,0.0
855,702770,SEWARD AIRPORT,AK,60.128,-149.417,3.0,41.069589041095895,80.1,0.0,1298.52,0.0,0.0,0.0
312,703888,SHAKTOOLIK AIRPORT,AK,64.37,-161.224,-22.0,28.541916167664667,79.0,0.0,7.53,0.0,0.0,0.0
830,701195,SHISHMAREF/NEW AIRPORT,AK,66.25,-166.089,-35.0,24.36454293628809,69.1,0.0,15798.719999999998,0.0,0.0,0.0
519,997799,SISTERS ISLAND,AK,58.167,-135.25,12.9,46.064835164835166,72.7,0.0,0.0,0.0,0.0,0.0
152,997171,SITKA,AK,57.052,-135.342,11.3,45.76,77.5,0.0,0.0,0.0,0.0,0.0
2176,703710,SITKA ROCKY GUTIERREZ ARPT,AK,57.048,-135.365,12.0,46.7986301369863,75.9,0.0,102.79999999999998,0.0,0.0,0.0
375,998259,SKAGWAY,AK,59.45,-135.318,-2.9,43.06480446927374,84.0,0.0,0.0,0.0,0.0,0.0
2445,703620,SKAGWAY AIRPORT,AK,59.456,-135.324,-2.9,42.924109589041095,88.0,0.0,30.470000000000002,0.0,0.0,0.0
850,702715,SKELTON AIRPORT,AK,61.949,-147.169,-23.1,27.450274725274728,77.0,0.0,26.44,0.0,0.0,0.0
809,703407,SLEETMUTE AIRPORT,AK,61.717,-157.15,-45.0,30.92642642642643,81.0,0.0,41.68,0.0,0.0,0.0
847,702595,SOLDOTNA AIRPORT,AK,60.476,-151.034,-23.1,37.30193370165747,79.0,0.0,237.21999999999997,0.0,0.0,0.0
661,997798,SOUTH DOUGLAS,AK,58.267,-134.433,8.1,43.999175824175815,81.0,0.0,0.0,0.0,0.0,0.0
2104,703335,SOUTH NAKNEK ARPT,AK,58.7,-157.0,-15.0,37.108287292817685,79.0,0.0,717.6599999999999,0.0,0.0,0.0
845,702350,SPARREVOHN LRRS AIRPORT,AK,61.1,-155.583,-27.2,32.82602739726027,73.8,727.6000000000001,7450.92,0.0,0.0,0.0
837,702005,ST MARY'S AIRPORT,AK,62.062,-163.3,-22.0,31.368219178082196,77.0,0.0,28.379999999999995,0.0,0.0,0.0
558,720382,ST MICHAEL,AK,63.49,-162.11,-20.9,31.241242937853105,80.1,0.0,18598.62,0.0,0.0,0.0
2444,703080,ST PAUL ISLAND AIRPORT,AK,57.155,-170.222,-0.9,36.051239669421484,57.9,0.0,23.68,0.0,0.0,0.0
868,703835,ST. GEORGE AIRPORT,AK,56.6,-169.565,6.1,42.30483091787439,57.9,0.0,39.800000000000004,0.0,0.0,0.0
2171,702510,TALKEETNA AIRPORT,AK,62.32,-150.095,-25.1,37.949450549450546,82.0,0.0,37.419999999999995,0.0,0.0,0.0
844,702315,TATALINA LRRS AIRPORT,AK,62.894,-155.976,-24.0,30.29635854341737,79.7,75.8,4838.94,0.0,0.0,0.0
2173,702730,TED STEVENS ANCHORAGE INTL,AK,61.169,-150.028,-11.9,39.381369863013695,78.1,2705.3999999999996,28.849999999999998,0.0,1.0,1.0
433,749230,TELLER AIRPORT,AK,65.233,-166.35,-24.0,29.863461538461532,70.0,0.0,216.35999999999993,0.0,0.0,0.0
359,998268,TENAKEE SPRINGS,AK,57.783,-135.217,10.6,44.90964187327824,78.6,0.0,0.0,0.0,0.0,0.0
829,701170,TIN CITY LRRS AIRPORT,AK,65.563,-167.921,-29.2,23.967032967032964,62.6,212.79999999999998,9620.679999999998,0.0,0.0,0.0
864,703606,TOGIAK AIRPORT,AK,59.067,-160.367,-29.9,34.48712871287128,78.1,0.0,453.47999999999996,0.0,0.0,0.0
808,703057,TOKSOOK BAY AIRPORT,AK,60.541,-165.087,-17.0,32.452542372881354,77.0,0.0,203.48,0.0,0.0,0.0
827,700634,UGNU-KUPRAUK AIRPORT,AK,70.331,-149.598,-50.8,14.130769230769232,71.6,0.0,32596.739999999987,0.0,0.0,0.0
2004,702070,UNALAKLEET,AK,63.883,-160.8,-34.1,30.575482093663915,82.0,0.0,13002.939999999999,0.0,0.0,0.0
335,998431,UNALASKA,AK,53.879,-166.54,20.8,45.8128205128205,73.0,0.0,0.0,0.0,0.0,0.0
378,998271,VALDEZ,AK,61.133,-146.367,1.4,39.384078212290504,71.8,0.0,0.0,0.0,0.0,0.0
853,702756,VALDEZ PIONEER FIELD AIRPORT,AK,61.132,-146.244,-9.0,41.33496732026144,75.2,0.0,7461.879999999999,0.0,0.0,0.0
2429,700260,W POST-WILL ROGERS MEMORIAL A,AK,71.283,-156.782,-38.0,16.145604395604398,69.1,0.0,12.180000000000001,0.0,0.0,0.0
2016,700300,WAINWRIGHT (DEW)             ,AK,70.617,-159.85,-45.0,15.808379888268155,73.9,0.0,1502.1,0.0,0.0,0.0
788,702615,WAINWRIGHT AAF AIRPORT,AK,64.838,-147.614,-44.1,28.338736263736266,85.6,6871.799999999999,6413.38,0.0,0.0,0.0
437,701337,WALES AIRPORT,AK,65.617,-168.1,-29.9,30.581854838709678,66.9,0.0,6299.399999999998,0.0,0.0,0.0
1828,702325,WASILLA AIRPORT,AK,61.572,-149.541,-18.9,39.02603878116344,80.1,0.0,38.519999999999996,0.0,0.0,0.0
221,702004,WHITE MOUNTAIN,AK,64.689,-163.413,-31.0,29.098837209302324,77.0,0.0,5499.469999999999,0.0,0.0,0.0
870,703870,WRANGELL AIRPORT,AK,56.473,-132.387,3.9,45.29260273972603,81.0,0.0,2938.46,0.0,0.0,0.0
2510,703610,YAKUTAT AIRPORT,AK,59.512,-139.671,-11.9,41.8891364902507,82.0,0.0,342.45,0.0,0.0,0.0
1566,722284,ABRN-OPLKA R G PITTS ARPT,AL,32.616,-85.433,21.0,65.5111801242236,96.1,0.0,292.4200000000001,0.0,0.0,0.0
801,722275,ANDALUSIA-OPP MUNICIPAL AIRPO,AL,31.309,-86.394,18.0,69.54219178082192,105.1,0.0,106.92,0.0,0.0,0.0
2187,722287,ANNISTON METROPOLITAN ARPT,AL,33.587,-85.856,9.0,62.80904109589041,97.0,0.0,249.84,0.0,0.0,0.0
47,720507,BESSEMER AIPORT,AL,33.313,-86.926,9.0,63.282739726027394,97.0,0.0,845.4,0.0,0.0,0.0
2476,722280,BIRMINGHAM INTERNATIONAL AIRP,AL,33.566,-86.745,9.0,64.33232876712331,100.0,1.2,68.7,0.0,1.0,1.0
228,998485,BON SECOUR,AL,30.329,-87.829,22.3,73.81283018867924,95.7,0.0,0.0,0.0,0.0,0.0
2020,722269,CAIRNS AAF,AL,31.267,-85.7,14.0,66.08269230769233,100.4,0.0,1289.1,0.0,0.0,0.0
250,998439,CEDAR POINT,AL,30.308,-88.14,21.9,73.09311740890688,100.6,0.0,0.0,0.0,0.0,0.0
509,998192,COAST GUARD SECTOR,AL,30.65,-88.05,20.5,68.32430167597767,98.6,0.0,0.0,0.0,0.0,0.0
100,722266,CRAIG FLD,AL,32.344,-86.988,15.8,64.04039548022598,98.6,0.0,26597.339999999997,0.0,0.0,0.0
83,A51255,DEMOPOLIS MUNICIPAL AIRPORT,AL,32.464,-87.954,13.1,65.1016620498615,100.2,0.0,15298.47,0.0,0.0,0.0
1564,722268,DOTHAN REGIONAL AIRPORT,AL,31.317,-85.45,16.0,67.17506849315069,102.0,0.0,150.15000000000003,0.0,0.0,0.0
768,720361,FLORALA MUNI,AL,31.043,-86.312,17.1,67.48870431893688,100.9,0.0,5932.15,0.0,0.0,0.0
936,722031,FOLSOM FIELD AP,AL,34.269,-86.858,1.4,60.733150684931516,95.0,0.0,33996.599999999984,0.0,0.0,0.0
1009,722285,GADSDEN MUNICIPAL AIRPORT,AL,33.967,-86.083,9.0,60.94438356164384,97.0,0.0,2699.66,0.0,0.0,0.0
468,720592,H L SONNY CALLAHAN AIRPORT,AL,30.46,-87.877,21.2,62.801886792452834,96.8,0.0,19998.0,0.0,0.0,0.0
762,722238,HANCHEY ARMY HELIPORT (FORT R,AL,31.35,-85.667,15.3,66.09806094182827,101.3,0.0,695.4799999999999,0.0,0.0,0.0
2206,723230,HUNTSVILLE INTL/C.T.JONES FIE,AL,34.644,-86.787,3.9,62.25302197802198,100.0,13.6,56.94,0.0,0.0,0.0
1692,A00013,ISBELL FIELD AIRPORT,AL,34.474,-85.721,6.6,58.65576923076923,95.0,0.0,12698.73,0.0,0.0,0.0
773,720381,JACK EDWARDS AIRPORT,AL,30.291,-87.672,21.2,68.03812154696135,98.6,0.0,15998.4,1.0,0.0,3.0
510,722239,LOWE ARMY HELIPORT (FORT RUCK,AL,31.356,-85.751,14.0,65.07944444444445,100.2,0.0,854.0599999999998,0.0,0.0,0.0
760,720362,MAC CRENSHAW MEMORIAL AIRPORT,AL,31.846,-86.611,12.0,63.47863013698631,98.1,0.0,160.23999999999998,0.0,0.0,0.0
905,720307,MADISON CO EXECUTIVE ARPT,AL,34.861,-86.557,2.5,60.54229691876751,98.8,0.0,10086.02,0.0,0.0,0.0
1882,722265,MAXWELL AFB,AL,32.383,-86.367,13.8,65.0654794520548,101.1,0.0,314.22,0.0,1.0,1.0
99,720508,MERKEL FLD SYLACAUGA MUNI,AL,33.172,-86.306,9.9,62.523013698630145,96.1,0.0,2939.1399999999994,0.0,0.0,0.0
224,997742,MIDDLE BAY LIGHT,AL,30.433,-88.0,46.9,65.45,81.3,0.0,0.0,0.0,0.0,0.0
1565,722276,MIDDLETON FIELD AIRPORT,AL,31.416,-87.044,19.9,65.60083102493076,100.9,0.0,313.68,0.0,0.0,0.0
2009,722235,MOBILE DOWNTOWN,AL,30.617,-88.067,21.0,68.75068493150685,100.0,0.0,727.72,0.0,0.0,0.0
2186,722230,MOBILE REGIONAL AIRPORT,AL,30.688,-88.246,19.9,67.76301369863015,102.0,0.0,67.0,0.0,0.0,0.0
505,998196,MOBILE STATE DOCKS,AL,30.7,-88.033,20.8,69.08770949720672,102.7,0.0,0.0,0.0,0.0,0.0
2341,722260,MONTGOMERY RGNL (DANNELLY FD),AL,32.3,-86.408,16.0,66.16611570247935,104.0,0.0,58.06999999999999,0.0,0.0,0.0
2207,723235,NORTH WEST ALABAMA REGIONAL A,AL,34.744,-87.6,10.0,62.828846153846165,102.0,0.0,53.53,0.0,0.0,0.0
472,720413,POSEY FIELD AIRPORT,AL,34.267,-87.6,1.0,60.46556473829201,97.0,0.0,3102.08,0.0,0.0,0.0
1008,722279,PRYOR FIELD REGIONAL ARPT,AL,34.653,-86.945,10.0,61.118681318681325,98.1,11.0,305.86,0.0,0.0,0.0
790,723231,REDSTONE ARMY AIRFIELD,AL,34.679,-86.685,5.0,62.33529411764705,98.2,0.0,2450.2199999999993,0.0,0.0,0.0
295,720856,SCOTTSBORO MUNICIPAL AIRPORT,AL,34.689,-86.006,6.8,61.25412087912088,96.8,0.0,14498.549999999997,0.0,0.0,0.0
1852,722300,SHELBY COUNTY AIRPORT,AL,33.178,-86.782,10.0,64.42219178082193,97.0,0.0,138.55999999999997,0.0,0.0,0.0
103,722219,SHELL AHP,AL,31.363,-85.849,14.0,66.39504132231406,102.9,0.0,237.23000000000005,0.0,0.0,0.0
216,720504,TALLADEGA MUNI,AL,33.57,-86.051,10.4,59.01892857142857,97.3,0.0,2827.0299999999997,0.0,0.0,0.0
778,720376,THE ALBERTVILLE MUNI ARPT-THO,AL,34.229,-86.256,5.0,60.62920110192837,95.0,0.0,0.0,0.0,0.0,0.0
877,720265,THOMAS C RUSSELL FLD ARPT,AL,32.915,-85.963,11.5,62.89479452054795,95.0,0.0,6684.24,0.0,0.0,0.0
1872,722267,TROY MUNI,AL,31.867,-86.017,16.0,66.80110192837466,100.9,0.0,111.12,0.0,0.0,0.0
1904,722286,TUSCALOOSA RGNL,AL,33.217,-87.6,10.9,64.76465753424658,100.9,0.0,128.2,0.0,0.0,0.0
282,720912,VIOSCA KNOLL 768 OIL PLATFORM,AL,29.233,-87.783,33.8,75.60893371757925,98.6,0.0,0.0,0.0,0.0,0.0
275,720505,WALKER COUNTY AIRPORT BEVILL,AL,33.902,-87.314,6.8,61.26448863636364,102.2,0.0,9099.09,0.0,0.0,0.0
761,720363,WEEDON FIELD AIRPORT,AL,31.951,-85.129,15.1,66.40794520547946,104.0,0.0,839.6299999999999,0.0,0.0,0.0
626,998016,WEEKS BAY RESERVE,AL,30.417,-87.833,20.1,67.26914600550965,98.2,0.0,0.0,0.0,0.0,0.0
2119,723403,ADAMS FIELD AIRPORT,AR,34.727,-92.239,1.9,63.77315068493151,104.0,9.5,50.13999999999999,0.0,1.0,1.0
1866,723408,ARKANSAS INTL,AR,35.967,-89.933,15.8,54.38444444444444,98.6,0.0,1199.8799999999999,0.0,0.0,0.0
1111,723448,BATESVILLE REGIONAL ARPT,AR,35.726,-91.647,1.0,61.1005617977528,105.1,0.0,97.75999999999998,0.0,0.0,0.0
1589,723444,BENTONVILLE MUNI/LOUIS M THAD,AR,36.35,-94.217,-5.8,57.25823529411764,102.9,0.0,688.6199999999999,0.0,0.0,0.0
1105,723409,BLYTHEVILLE MUNI AIRPORT,AR,35.94,-89.831,-0.9,60.80438356164384,100.9,0.0,72.99999999999999,0.0,0.0,0.0
1819,723450,BOONE COUNTY AIRPORT,AR,36.267,-93.157,-6.0,58.327123287671235,102.0,0.0,44.34,0.0,0.0,0.0
566,720401,CLINTON MUNI,AR,35.6,-92.45,-0.4,58.626575342465756,104.0,0.0,28811.899999999987,0.0,0.0,0.0
129,720394,DEXTER B FLORENCE MEMORIAL FI,AR,34.1,-93.066,10.0,58.38786764705882,98.1,0.0,84.52,0.0,0.0,0.0
1918,723445,DRAKE FLD,AR,36.0,-94.167,-2.9,59.10523415977962,104.0,87.8,86.94000000000001,0.0,0.0,0.0
2402,723440,FORT SMITH REGIONAL AIRPORT,AR,35.333,-94.363,3.0,62.79506849315069,108.0,17.2,57.6,0.0,1.0,1.0
1917,723417,GRIDER FLD,AR,34.167,-91.933,5.0,64.0254794520548,100.9,16.8,297.7199999999999,0.0,0.0,0.0
739,723425,HARRELL FIELD AIRPORT,AR,33.617,-92.767,5.0,63.75780821917808,105.8,0.0,482.5199999999999,0.0,0.0,0.0
1835,743312,J.L. HELMS SEVIER CO ARPT,AR,34.05,-94.401,6.1,63.64038461538461,107.1,0.0,84.64,0.0,0.0,0.0
1104,723407,JONESBORO MUNICIPAL ARPT,AR,35.831,-90.646,14.0,61.32618384401115,102.0,0.0,101.92,0.0,0.0,0.0
1886,723405,LITTLE ROCK AFB,AR,34.917,-92.15,3.4,61.263287671232874,102.0,19.0,88.53999999999999,1.0,2.0,5.0
1818,723447,MARION COUNTY RGNL AIRPORT,AR,36.291,-92.59,-2.9,59.66918767507003,108.0,0.0,78.33999999999999,0.0,0.0,0.0
1106,723415,MEMORIAL FIELD AIRPORT,AR,34.29,-93.06,3.9,63.15123287671233,105.1,0.0,87.22,0.0,0.0,0.0
873,720172,MENA INTERMOUNTAIN MUNICIPAL,AR,34.545,-94.203,0.7,61.64563106796117,104.0,0.0,359.46000000000004,0.0,0.0,0.0
1730,720175,MONTCELO MUNI/ELLIS FLD AP,AR,33.636,-91.756,6.1,63.95424657534247,100.9,0.0,53.63,0.0,0.0,0.0
1760,723435,MOUNT IDA,AR,34.547,-93.578,1.9,61.956712328767125,106.0,0.0,108.75999999999998,0.0,0.0,0.0
1108,723429,MUNICIPAL AIRPORT,AR,35.258,-93.095,3.0,61.26308539944905,105.1,0.0,95.19999999999999,0.0,0.0,0.0
556,720377,NEWPORT MUNI,AR,35.638,-91.176,0.0,59.7543956043956,100.0,0.0,91.92,0.0,0.0,0.0
1586,723436,NW ARKANSAS REGIONAL ARPT,AR,36.283,-94.3,-4.0,58.889315068493154,107.1,0.0,105.61999999999999,0.0,0.0,0.0
1587,723439,OZARK REGIONAL AIRPORT,AR,36.369,-92.47,-5.1,58.74931506849315,107.1,0.0,95.49999999999999,0.0,0.0,0.0
1112,723449,ROGERS MUNI-CARTER FLD APT,AR,36.372,-94.107,-6.0,58.70027397260274,104.0,0.0,1082.4399999999998,0.0,0.0,0.0
2209,723419,S. AR RGNL AT GDWIN FLD AP,AR,33.221,-92.814,7.0,63.07087912087912,100.9,0.0,52.65,0.0,0.0,0.0
994,722188,SEARCY MUNICIPAL AIRPORT,AR,35.212,-91.737,1.0,60.83305785123967,100.9,0.0,84.86000000000001,0.0,0.0,0.0
1588,723443,SMITH FIELD AIRPORT,AR,36.191,-94.491,-4.0,58.36723163841809,104.0,0.0,93.96000000000001,0.0,0.0,0.0
1109,723434,SPRINGDALE MUNICIPAL ARPT,AR,36.176,-94.119,-5.8,61.25753424657534,102.2,0.0,11198.879999999997,0.0,1.0,1.0
1107,723416,STUTTGART MUNICIPAL ARPT,AR,34.6,-91.574,19.0,64.30375722543353,99.0,0.0,99.18,0.0,0.0,0.0
2413,723418,TEXARKANA REGIONAL AIRPORT-WE,AR,33.456,-93.988,8.1,66.64986301369863,108.0,0.0,143.11999999999998,0.0,0.0,0.0
1759,723406,WALNUT RIDGE REGIONAL ARPT,AR,36.125,-90.924,-2.0,59.16264044943821,102.0,13.4,95.44000000000003,0.0,0.0,0.0
1734,722054,WEST MEMPHIS MUNICIPAL APT,AR,35.135,-90.234,1.9,62.0923287671233,105.1,0.0,108.29999999999998,0.0,0.0,0.0
321,722720,BISBEE DOUGLAS INTL ARPT,AZ,31.458,-109.606,17.1,47.73235294117647,78.1,0.0,2.49,0.0,0.0,0.0
140,720644,BUCKEYE MUNICIPAL AIRPORT,AZ,33.417,-112.683,28.4,72.57000000000001,113.0,0.0,0.0,0.0,0.0,0.0
1061,722748,CASA GRANDE MUNICIPAL ARPT,AZ,32.95,-111.767,26.1,71.90810055865921,111.9,0.0,5611.039999999999,0.0,0.0,0.0
1062,722749,CHANDLER MUNICIPAL AIRPORT,AZ,33.269,-111.813,33.8,77.2603305785124,114.8,0.0,2999.7,0.0,0.0,0.0
97,A00015,COLORADO CITY MUNI AIRPORT,AZ,36.96,-113.014,3.2,55.57861111111111,105.8,0.0,7099.289999999999,0.0,0.0,0.0
2438,749173,COOLIDGE MUNI,AZ,32.936,-111.427,26.6,69.37717041800641,111.2,0.0,5199.479999999999,0.0,0.0,0.0
2026,722745,DAVIS MONTHAN AFB,AZ,32.167,-110.883,25.2,68.95808219178082,107.2,0.0,620.34,0.0,0.0,0.0
2120,723723,ERNEST A. LOVE FIELD ARPT,AZ,34.652,-112.421,9.0,56.11863013698629,98.1,0.0,113.06000000000004,0.0,1.0,1.0
1064,722783,FALCON FIELD AIRPORT,AZ,33.467,-111.733,37.0,74.55452054794519,113.0,0.0,15.400000000000002,0.0,0.0,0.0
2095,723760,FLAGSTAFF,AZ,35.217,-111.817,1.9,54.06465753424658,102.9,0.0,207.47999999999996,0.0,0.0,0.0
1763,723750,FLAGSTAFF PULLIAM AIRPORT,AZ,35.144,-111.666,-7.1,47.5827397260274,89.1,491.6000000000001,37.82000000000001,0.0,1.0,1.0
1875,722730,FORT HUACHUCA,AZ,31.583,-110.333,20.7,63.16401098901098,99.3,0.0,1630.0200000000004,0.0,4.0,4.0
1066,722787,GLENDALE MUNICIPAL AIRPORT,AZ,33.527,-112.295,30.2,77.73119777158773,113.0,0.0,2199.7799999999997,0.0,0.0,0.0
1132,723783,GRAND CANYON NATL PARK APT,AZ,35.946,-112.155,-9.9,47.27774725274725,95.0,0.0,32.699999999999996,0.0,0.0,0.0
415,720635,H A CLARK MEMORIAL FIELD AIRP,AZ,35.3,-112.2,-2.2,49.98547945205481,93.2,0.0,10098.99,0.0,0.0,0.0
2089,723700,KINGMAN AIRPORT,AZ,35.258,-113.933,18.0,63.42,107.1,0.0,16.94,0.0,0.0,0.0
1133,723788,LAUGHLIN/BULLHEAD INTERNATION,AZ,35.157,-114.559,33.8,76.31397260273974,116.6,0.0,3999.6,0.0,0.0,0.0
1864,722785,LUKE AFB,AZ,33.533,-112.383,32.0,73.97013698630138,114.3,0.0,415.7,0.0,1.0,1.0
1059,722728,NOGALES INTERNATIONAL ARPT,AZ,31.421,-110.846,16.0,64.08082191780821,106.0,0.0,40.42,0.0,0.0,0.0
1127,723710,PAGE MUNICIPAL AIRPORT,AZ,36.926,-111.448,18.0,61.15780821917809,107.1,0.0,10.639999999999999,0.0,0.0,0.0
364,723745,PAYSON AIRPORT,AZ,34.257,-111.339,17.6,58.54465753424658,98.6,0.0,10398.959999999997,0.0,0.0,0.0
1065,722784,PHOENIX DEER VALLEY ARPT,AZ,33.688,-112.082,30.9,73.03506849315069,114.1,0.0,216.93999999999997,0.0,0.0,0.0
1067,722788,PHOENIX GOODYEAR AIRPORT,AZ,33.417,-112.383,33.8,77.03901098901098,114.8,0.0,4399.5599999999995,0.0,0.0,0.0
2198,722780,PHOENIX SKY HARBOR INTL AIRPO,AZ,33.428,-112.004,36.0,76.12082191780821,115.0,0.0,106.28,0.0,0.0,0.0
2472,749167,PINAL AIRPARK,AZ,32.511,-111.328,21.2,70.6812080536913,109.4,0.0,8599.14,0.0,0.0,0.0
500,722813,PIONEER AIRFIELD,AZ,31.607,-110.428,19.9,62.29397260273972,99.0,0.0,118.35,0.0,0.0,0.0
554,720339,RYAN FLD,AZ,32.142,-111.175,21.2,71.17873563218392,107.6,0.0,4599.54,0.0,0.0,0.0
1060,722747,SAFFORD REGIONAL AIRPORT,AZ,32.855,-109.635,21.0,65.57774725274726,108.0,0.0,419.04,0.0,0.0,0.0
1068,722789,SCOTTSDALE AIRPORT,AZ,33.623,-111.911,32.0,74.2,114.1,0.0,417.5199999999999,0.0,0.0,0.0
429,723756,SEDONA AIRPORT,AZ,34.85,-111.783,23.0,61.746575342465746,104.0,0.0,19998.0,0.0,0.0,0.0
1128,723747,SHOW LOW MUNICIPAL AIRPORT,AZ,34.264,-110.008,1.4,52.388219178082196,95.0,39.8,26397.36,0.0,0.0,0.0
1129,723754,ST JOHNS INDUS AIRPK ARPT,AZ,34.518,-109.379,1.9,48.72981366459627,96.1,0.0,1.4800000000000004,0.0,0.0,0.0
2197,722740,TUCSON INTERNATIONAL AIRPORT,AZ,32.131,-110.955,26.1,70.84630136986301,111.0,0.0,7.84,0.0,0.0,0.0
1908,722786,WILLIAMS GATEWAY,AZ,33.3,-111.65,30.2,72.40356164383563,113.0,0.0,9803.44,0.0,0.0,0.0
1063,722764,WINDOW ROCK AIRPORT,AZ,35.658,-109.061,-5.1,50.45041095890411,98.1,0.0,33.21999999999999,0.0,0.0,0.0
2212,723740,WINSLOW-LINDBERGH REGIONAL AI,AZ,35.028,-110.721,1.9,56.94116022099446,104.0,0.0,7.300000000000001,0.0,0.0,0.0
1791,740035,YUMA MCAS,AZ,32.65,-114.617,36.0,75.94794520547946,114.1,0.0,101.07999999999998,0.0,0.0,0.0
634,994033,ALAMEDA,CA,37.772,-122.298,39.0,57.05070028011205,92.7,0.0,0.0,0.0,0.0,0.0
1335,725958,ALTURAS MUNICIPAL AIRPORT,CA,41.491,-120.564,-9.9,46.848333333333336,104.0,0.0,19.16,0.0,0.0,0.0
2285,725945,ARCATA AIRPORT,CA,40.978,-124.109,27.0,51.127945205479456,78.1,0.0,34.57,0.0,0.0,0.0
636,994044,ARENA COVE,CA,38.92,-123.7,32.0,52.49803921568627,69.1,0.0,0.0,0.0,0.0,0.0
879,720267,AUBURN MUNICIPAL AIRPORT,CA,38.955,-121.082,23.0,61.996438356164376,111.2,0.0,0.0,0.0,0.0,0.0
1859,722920,AVALON/CATALINA,CA,33.4,-118.417,37.9,62.8909090909091,105.1,0.0,13.02,0.0,0.0,0.0
2380,723815,BARSTOW-DAGGETT AIRPORT,CA,34.854,-116.786,23.0,68.96088154269971,111.9,0.0,1.4100000000000001,0.0,0.0,0.0
1877,724837,BEALE AFB,CA,39.133,-121.433,23.4,62.46153846153846,110.7,0.0,24.78,0.0,1.0,1.0
1699,746110,BICYCLE LAKE FORT IRWIN AAF,CA,35.283,-116.633,14.2,66.42794520547945,109.0,0.0,204.0,0.0,0.0,0.0
73,A06854,BIG BEAR CITY AIRPORT,CA,34.264,-116.854,-0.4,46.23729281767956,86.0,0.0,5999.399999999999,0.0,0.0,0.0
2452,724800,BISHOP AIRPORT,CA,37.371,-118.358,8.1,58.93104395604396,107.1,2.4,5.07,0.0,0.0,0.0
2282,725845,BLUE CANYON - NYACK ARPT,CA,39.277,-120.71,17.1,53.340547945205486,96.1,0.0,142.04000000000002,0.0,0.0,0.0
2480,747188,BLYTHE AIRPORT,CA,33.619,-114.714,30.0,75.68082191780822,116.1,0.0,3.5700000000000003,0.0,0.0,0.0
1072,722887,BRACKETT FIELD AIRPORT,CA,34.1,-117.783,30.2,70.29275862068964,107.6,0.0,1799.82,0.0,0.0,0.0
396,720652,BRIDGEPORT SONORA JUNCTION,CA,38.356,-119.519,-11.0,44.69138888888888,93.0,0.0,28.32,0.0,0.0,0.0
1077,722904,BROWN FIELD MUNICIPAL ARPT,CA,32.572,-116.979,34.0,63.32410958904109,100.0,0.0,29.49,0.0,0.0,0.0
325,724950,BUCHANAN FIELD AIRPORT,CA,37.992,-122.055,28.0,60.965753424657535,111.9,0.0,15.699999999999998,0.0,0.0,0.0
1909,722880,BURBANK/GLENDALE,CA,34.2,-118.35,36.0,67.53616438356164,111.9,0.0,11.54,0.0,0.0,0.0
27,720329,CABLE,CA,34.112,-117.688,35.6,66.14820936639117,105.8,0.0,2599.7399999999993,0.0,0.0,0.0
517,998175,CAL POLY PIER,CA,35.167,-120.733,40.3,56.07999999999999,79.2,0.0,0.0,0.0,0.0,0.0
48,720681,CALAVERAS CO MAURY RASMUSSEN,CA,38.146,-120.648,24.6,61.1232044198895,111.9,0.0,0.0,0.0,0.0,0.0
1764,723926,CAMARILLO AIRPORT,CA,34.217,-119.083,33.1,62.17068493150684,106.0,0.0,10.02,0.0,0.0,0.0
1853,724810,CASTLE,CA,37.38,-120.568,28.4,62.75369863013698,116.6,0.0,1199.8799999999999,0.0,0.0,0.0
1214,724973,CHICO MUNICIPAL AIRPORT,CA,39.8,-121.85,26.6,63.79863013698631,111.2,0.0,6399.359999999998,0.0,0.0,0.0
2330,746120,CHINA LAKE,CA,35.688,-117.693,19.0,67.44230769230771,113.0,0.0,1.28,0.0,0.0,0.0
1075,722899,CHINO AIRPORT,CA,33.975,-117.636,30.9,66.74027397260275,111.9,0.0,9.98,0.0,0.0,0.0
438,720615,COLUMBIA AIRPORT,CA,38.033,-120.417,23.0,60.081095890410964,111.2,0.0,0.0,0.0,0.0,0.0
552,720333,CORONA MUNI,CA,33.9,-117.6,26.6,65.3895890410959,106.0,0.0,7.76,0.0,0.0,0.0
580,994012,CRESCENT CITY,CA,41.745,-124.183,33.1,51.52234636871508,78.3,0.0,0.0,0.0,0.0,0.0
238,998474,DAVIS POINT  SAN PABLO BAY,CA,38.057,-122.259,37.8,58.7300835654596,96.6,0.0,0.0,0.0,0.0,0.0
2446,747187,DESERT RESORTS RGNL ARPT,CA,33.627,-116.159,21.9,74.04890109890111,115.0,0.0,0.8300000000000001,0.0,0.0,0.0
2067,722874,DOWNTOWN L.A./USC CAMPUS,CA,34.024,-118.291,35.1,64.54657534246574,102.9,0.0,6.409999999999999,0.0,0.0,0.0
2032,723810,EDWARDS AFB,CA,34.933,-117.9,16.7,63.056438356164385,110.7,0.0,2.84,0.0,0.0,0.0
1498,747043,EL MONTE AIRPORT,CA,34.083,-118.033,37.4,71.53756906077348,109.4,0.0,2199.7799999999997,0.0,0.0,0.0
657,997997,ELKHORN SLOUGH RESERVE,CA,36.817,-121.733,31.6,54.88236914600551,95.5,0.0,4.85,0.0,0.0,0.0
2053,745160,FAIRFIELD/TRAVIS AF,CA,38.267,-121.95,22.5,60.503287671232876,116.6,0.0,1013.6599999999999,0.0,0.0,0.0
57,723897,FRESNO CHANDLER EXECUTIVE,CA,36.732,-119.82,32.0,53.59166666666667,80.6,0.0,0.0,0.0,0.0,0.0
2497,723890,FRESNO YOSEMITE INTERNATIONAL,CA,36.78,-119.719,32.0,66.83808219178081,114.1,0.0,6.059999999999999,0.0,0.0,0.0
1084,722976,FULLERTON MUNICIPAL ARPT,CA,33.872,-117.979,37.0,66.22712328767125,111.0,0.0,11.86,0.0,0.0,0.0
2160,723816,GENERAL WILLIAM J. FOX AIRFIE,CA,34.741,-118.212,18.0,64.00356164383561,113.0,0.0,2.8699999999999997,0.0,0.0,0.0
1078,722907,GILLESPIE FIELD AIRPORT,CA,32.826,-116.973,32.0,64.00328767123288,100.4,0.0,4799.5199999999995,0.0,0.0,0.0
71,720406,GNOSS FIELD AIRPORT,CA,38.15,-122.55,24.8,57.75152354570638,111.2,0.0,8399.16,0.0,0.0,0.0
403,720646,HALF MOON BAY AIRPORT,CA,37.513,-122.501,28.4,53.85906593406594,86.0,0.0,5499.449999999999,0.0,0.0,0.0
1136,723898,HANFORD MUNICIPAL AIRPORT,CA,36.319,-119.629,28.0,64.82876712328768,114.1,0.0,10.120000000000001,0.0,0.0,0.0
326,725850,HAYWARD EXECUTIVE AIRPORT,CA,37.654,-122.115,35.1,58.187123287671234,106.0,0.0,11.41,0.0,0.0,0.0
12,720687,HEMET RYAN,CA,33.733,-117.017,23.9,63.97479452054795,111.4,0.0,1106.12,0.0,0.0,0.0
432,749179,HOLLISTER MUNICIPAL AIRPORT,CA,36.9,-121.417,26.6,57.90164383561644,111.2,0.0,0.0,0.0,0.0,0.0
1499,747185,IMPERIAL COUNTY AIRPORT,CA,32.834,-115.579,30.9,74.57808219178084,114.1,0.0,2.4400000000000004,0.0,0.0,0.0
1971,725946,JACK MC NAMARA FLD,CA,41.767,-124.233,30.0,51.89890410958904,73.0,0.0,78.6,0.0,0.0,0.0
1911,722977,JOHN WAYNE ARPT ORA,CA,33.667,-117.867,41.0,66.7095890410959,106.0,0.0,10.479999999999997,0.0,1.0,1.0
630,994018,LA JOLLA,CA,32.867,-117.258,44.8,62.594134078212285,91.4,0.0,0.0,0.0,0.0,0.0
2074,725847,LAKE TAHOE AIRPORT,CA,38.898,-119.995,-9.9,43.940677966101696,93.0,0.0,32.699999999999996,0.0,0.0,0.0
411,720614,LINCOLN REGIONAL AIRPORT KARL,CA,38.909,-121.351,21.2,60.665205479452055,113.0,0.0,0.0,0.0,0.0,0.0
2070,724927,LIVERMORE MUNICIPAL ARPT,CA,37.693,-121.814,26.1,59.54712328767124,113.0,0.0,17.26,0.0,0.0,0.0
1073,722895,LOMPOC AIRPORT,CA,34.667,-120.467,27.0,55.81227544910179,93.0,0.0,5.939999999999998,0.0,0.0,0.0
2456,722970,LONG BEACH / DAUGHERTY FIELD,CA,33.812,-118.146,39.0,65.46383561643835,109.0,0.0,4.739999999999999,0.0,0.0,0.0
1083,722975,LOS ALAMITOS AAF AIRPORT,CA,33.79,-118.052,34.5,63.762191780821915,107.6,0.0,12.33,0.0,0.0,0.0
2441,722950,LOS ANGELES INTERNATIONAL AIR,CA,33.938,-118.389,39.0,64.18164383561644,102.0,0.0,5.640000000000001,0.0,0.0,0.0
1485,745046,MADERA MUNICIPAL AIRPORT,CA,36.988,-120.111,27.0,63.353972602739724,115.0,0.0,8.52,0.0,0.0,0.0
792,723894,MAMMOTH YOSEMITE AIRPORT,CA,37.633,-118.85,-13.0,44.783381924198245,89.6,0.0,9998.999999999998,0.0,0.0,0.0
4,724916,MARINA MUNI,CA,36.682,-121.762,-11.2,42.30574712643678,80.6,0.0,10798.919999999998,0.0,0.0,0.0
1711,722931,MARINE CORPS AIR STATION,CA,32.867,-117.133,33.1,61.9427397260274,100.2,0.0,209.99999999999997,1.0,0.0,3.0
2164,722926,MARINE CORPS AIR STATION,CA,33.3,-117.35,28.0,63.48483965014577,100.9,0.0,402.92999999999995,0.0,0.0,0.0
239,998475,MARTINEZ-AMORCO,CA,38.033,-122.125,35.4,59.643016759776536,102.4,0.0,0.0,0.0,0.0,0.0
1894,724836,MC CLELLAN AFLD,CA,38.668,-121.401,28.4,62.79369863013698,113.0,0.0,12198.779999999997,0.0,0.0,0.0
1079,722927,MCCLELLAN-PALOMAR AIRPORT,CA,33.128,-117.279,37.9,62.58931506849315,96.1,0.0,11.860000000000001,0.0,0.0,0.0
394,722928,MCOLF CAMP PENDLETON RED BEAC,CA,33.286,-117.456,42.1,63.14404761904762,97.0,0.0,400.8999999999999,0.0,0.0,0.0
2251,724926,MDSTO CTY-CO H SHAM FD APT,CA,37.624,-120.951,28.0,62.79013698630137,111.9,0.0,7.87,0.0,0.0,0.0
2503,723840,MEADOWS FIELD AIRPORT,CA,35.434,-119.054,30.9,67.61424657534249,115.0,0.0,3.9200000000000004,0.0,0.0,0.0
803,722953,MOJAVE AIRPORT,CA,35.067,-118.15,21.2,63.67916666666667,107.6,0.0,199.98,0.0,0.0,0.0
1210,724915,MONTEREY PENINSULA AIRPORT,CA,36.588,-121.845,34.0,56.8745205479452,93.0,0.0,33.629999999999995,0.0,0.0,0.0
1076,722903,MONTGOMERY FIELD AIRPORT,CA,32.816,-117.139,37.9,64.32301369863013,99.0,0.0,11.359999999999998,0.0,0.0,0.0
621,998173,MOSS LANDING S HARBOR,CA,36.8,-121.783,35.8,53.65333333333333,77.4,0.0,0.0,0.0,0.0,0.0
1973,725957,MOUNT SHASTA,CA,41.317,-122.317,12.0,51.80469613259668,106.0,0.0,35.36,0.0,0.0,0.0
1860,745090,MOUNTAIN VIEW /SUNN,CA,37.417,-122.05,30.2,58.231212121212124,102.2,0.0,6399.359999999999,0.0,0.0,0.0
1206,724815,MRCD MUNI/MACREADY FLD APT,CA,37.285,-120.513,26.1,64.02383561643835,116.1,0.0,15.42,0.0,0.0,0.0
2253,724945,N Y. MINETA SN JO INTL APT,CA,37.359,-121.924,32.0,60.492876712328766,109.0,0.0,6.540000000000001,0.0,0.0,0.0
2140,722810,NAF,CA,32.817,-115.683,30.0,76.44649859943978,116.1,0.0,202.52999999999997,0.0,0.0,0.0
2071,724955,NAPA COUNTY AIRPORT,CA,38.21,-122.285,24.1,57.35561643835617,115.0,0.0,21.3,1.0,0.0,3.0
2372,747020,NAVAL AIR STATION,CA,36.333,-119.95,21.0,65.06785714285712,117.0,0.0,3.87,0.0,0.0,0.0
2199,722909,NAVAL AUXILIARY LANDING FD,CA,32.567,-117.117,36.0,62.07972602739726,96.1,0.0,303.86999999999995,0.0,0.0,0.0
2157,723805,NEEDLES AIRPORT,CA,34.768,-114.619,32.0,76.22148760330577,118.0,0.0,2.8000000000000003,0.0,0.0,0.0
237,749486,NEVADA COUNTY AIR PARK,CA,39.224,-121.003,24.8,60.596408839779,107.6,0.0,0.0,0.0,0.0,0.0
1098,723171,NORTH AUXILIARY AIRFIELD EDWA,CA,34.988,-117.865,15.4,62.89776536312849,111.6,0.0,3.52,0.0,0.0,0.0
2423,722906,NORTH ISLAND NAS,CA,32.7,-117.2,41.0,63.58082191780822,93.9,0.0,104.08,0.0,0.0,0.0
1082,722956,NRTHORP FLD/HATHRN MUNI AP,CA,33.923,-118.334,42.1,65.43917808219179,105.1,0.0,10.979999999999999,0.0,0.0,0.0
1207,724828,NUT TREE AIRPORT,CA,38.378,-121.958,25.0,63.54356164383561,115.0,0.0,22.96,0.0,0.0,0.0
139,998496,OAKLAND,CA,37.795,-122.288,38.3,57.71277777777778,94.8,0.0,0.0,0.0,0.0,0.0
240,998476,OAKLAND (BERTH 34)           ,CA,37.811,-122.333,39.0,56.57935103244838,86.2,0.0,0.0,0.0,0.0,0.0
1998,724930,OAKLAND/METROP. OAK,CA,37.75,-122.217,32.0,57.284657534246584,102.0,0.0,21.799999999999997,0.0,0.0,0.0
1080,722934,OCEANSIDE MUNICIPAL ARPT,CA,33.219,-117.349,28.9,61.78876712328768,97.0,0.0,12.159999999999998,0.0,0.0,0.0
1793,747040,ONTARIO INTERNATIONAL ARPT,CA,34.056,-117.6,32.0,66.48493150684932,109.0,0.0,12.16,0.0,0.0,0.0
1486,745048,OROVILLE MUNICIPAL AIRPORT,CA,39.49,-121.618,27.0,65.25027472527474,111.0,0.0,25.259999999999998,0.0,0.0,0.0
1924,723927,OXNARD,CA,34.201,-119.207,36.0,60.348767123287665,98.1,0.0,10.180000000000001,0.0,0.0,0.0
1069,722868,PALM SPRINGS INTL AIRPORT,CA,33.822,-116.504,35.1,77.63232876712328,116.1,0.0,2.42,0.0,0.0,0.0
1923,723820,PALMDALE PRODUCTION,CA,34.633,-118.083,19.9,64.06739726027396,109.9,0.0,4.62,0.0,0.0,0.0
1211,724937,PALO ALTO AIRPORT OF SANTA CL,CA,37.467,-122.117,28.4,60.54719101123595,100.4,0.0,3399.66,0.0,0.0,0.0
2498,723965,PASO ROBLES MUNICIPAL ARPT,CA,35.67,-120.628,21.9,60.140771349862256,111.9,0.0,7.1,0.0,0.0,0.0
74,A07049,PETALUMA MUNICIPAL AIRPORT,CA,38.25,-122.6,24.8,54.902247191011234,107.6,0.0,0.0,0.0,0.0,0.0
242,998478,PITTSBURG (SUISUN BAY)       ,CA,38.042,-121.887,33.1,61.56666666666666,103.6,0.0,0.0,0.0,0.0,0.0
405,720645,PLACERVILLE AIRPORT,CA,38.717,-120.75,26.6,61.06767123287671,107.6,0.0,0.0,0.0,0.0,0.0
2336,723910,POINT MUGU,CA,34.117,-119.117,33.1,60.77698630136986,105.1,0.0,201.72,0.0,0.0,0.0
635,994034,PORT CHICAGO,CA,38.057,-122.038,32.7,59.24390934844193,102.4,0.0,0.0,0.0,0.0,0.0
631,994023,PORT SAN LUIS,CA,35.177,-120.76,39.4,57.994692737430164,90.3,0.0,0.0,0.0,0.0,0.0
1134,723895,PORTERVILLE MUNICIPAL ARPT,CA,36.029,-119.063,28.9,64.89888888888889,113.0,0.0,9.0,0.0,0.0,0.0
1487,745056,RAMONA AIRPORT,CA,33.038,-116.916,25.0,62.01287671232876,107.1,0.0,18.799999999999997,0.0,0.0,0.0
2284,725910,RED BLUFF MUNICIPAL ARPT,CA,40.152,-122.254,26.1,65.01643835616437,114.1,0.0,11.63,0.0,0.0,0.0
2110,725920,REDDING MUNICIPAL AIRPORT,CA,40.518,-122.299,24.1,65.50027397260273,115.0,0.0,17.31,0.0,0.0,0.0
675,994041,REDWOOD CITY,CA,37.507,-122.2,35.2,58.04804469273743,98.8,0.0,0.0,0.0,0.0,0.0
1213,724946,REID-HILLVIEW AIRPORT OF SANT,CA,37.333,-121.817,30.2,63.83379501385041,109.4,0.0,1799.82,0.0,1.0,1.0
581,994036,RICHMOND,CA,37.928,-122.4,40.6,57.38739495798318,89.2,0.0,0.0,0.0,0.0,0.0
241,998477,RICHMOND (POINT POTRERO)     ,CA,37.906,-122.365,39.9,57.442339832869074,93.9,0.0,0.0,0.0,0.0,0.0
1070,722869,RIVERSIDE MUNICIPAL ARPT,CA,33.952,-117.439,34.0,66.95945205479451,109.9,0.0,7.819999999999999,0.0,0.0,0.0
2027,722860,RIVERSIDE/MARCH AFB,CA,33.9,-117.25,26.1,65.36465753424658,111.2,0.0,8.719999999999999,0.0,0.0,0.0
236,749485,ROHNERVILLE AIRPORT,CA,40.554,-124.133,26.6,50.2374613003096,77.0,0.0,0.0,0.0,0.0,0.0
1827,723825,S CALIF LOGISTICS,CA,34.6,-117.383,19.4,63.27541899441341,107.6,0.0,9599.039999999999,0.0,0.0,0.0
2248,724830,SACRAMENTO EXECUTIVE AIRPORT,CA,38.507,-121.495,27.0,61.6441095890411,114.1,0.0,9.36,0.0,0.0,0.0
2010,724839,SACRAMENTO INTL,CA,38.683,-121.583,26.1,62.97753424657533,116.1,0.0,19.82,0.0,0.0,0.0
1840,724833,SACRAMENTO MATHER AIRPORT,CA,38.567,-121.3,24.8,61.395303867403314,113.0,0.0,1799.82,0.0,0.0,0.0
1782,725930,SALINAS MUNICIPAL AIRPORT,CA,36.664,-121.608,32.0,58.47967032967033,102.9,0.0,7.24,0.0,0.0,0.0
440,722866,SAN BERNARDINO INTL,CA,34.095,-117.235,31.5,66.90438356164384,111.2,0.0,7799.219999999999,0.0,0.0,0.0
1212,724938,SAN CARLOS AIRPORT,CA,37.517,-122.25,32.0,58.278904109589035,105.8,0.0,7599.239999999998,0.0,0.0,0.0
1873,722925,SAN CLEMENTE ISLAND,CA,33.017,-118.583,39.0,60.96825842696629,91.0,0.0,604.3199999999998,0.0,0.0,0.0
2494,722900,SAN DIEGO INTERNATIONAL AIRPO,CA,32.734,-117.183,37.9,63.56493150684932,95.0,0.0,6.129999999999999,0.0,0.0,0.0
629,994016,SAN FRANCISCO,CA,37.807,-122.465,40.5,54.75223463687151,93.0,0.0,0.0,0.0,0.0,0.0
243,998479,SAN FRANCISCO (PIER 1)       ,CA,37.798,-122.393,41.2,56.81281337047353,96.1,0.0,0.0,0.0,0.0,0.0
659,998011,SAN FRANCISCO BAY RESERVE,CA,38.217,-122.017,26.4,59.260606060606065,104.0,0.0,7.469999999999998,0.0,0.0,0.0
2252,724940,SAN FRANCISCO INTERNATIONAL A,CA,37.62,-122.365,35.1,57.82054794520549,98.1,0.0,10.14,0.0,0.0,0.0
1074,722897,SAN LUIS CO REGIONAL ARPT,CA,35.237,-120.641,28.9,58.686027397260276,105.1,0.0,16.139999999999997,0.0,0.0,0.0
1865,722910,SAN NICHOLAS ISLAND,CA,33.25,-119.45,42.1,59.978932584269664,100.0,0.0,203.43999999999997,0.0,0.0,0.0
2213,723830,SANDBERG,CA,34.744,-118.724,24.1,59.19571428571429,100.0,0.0,13.14,0.0,0.0,0.0
380,998340,SANTA BARBARA,CA,34.408,-119.658,40.8,59.93351648351648,91.4,0.0,0.0,0.0,0.0,0.0
2215,723925,SANTA BARBARA MUNICIPAL AIRPO,CA,34.426,-119.843,33.1,59.887945205479454,99.0,0.0,6.63,0.0,0.0,0.0
2216,723940,SANTA MARIA PUB/CAPT G A HANC,CA,34.899,-120.449,28.9,56.46328767123288,95.0,0.0,8.290000000000001,0.0,0.0,0.0
1071,722885,SANTA MONICA MUNI AIRPORT,CA,34.016,-118.451,39.9,62.86410958904111,100.9,0.0,10.639999999999999,0.0,0.0,0.0
633,994028,SANTA MONICA PIER,CA,34.008,-118.5,45.5,61.80698324022346,91.2,0.0,0.0,0.0,0.0,0.0
784,723762,SANTA YNEZ AIRPORT,CA,34.607,-120.076,24.8,58.121606648199446,107.6,0.0,21597.839999999993,0.0,0.0,0.0
1972,725955,SISKIYOU CO,CA,41.783,-122.467,9.0,54.02082191780822,111.0,0.0,11.42,0.0,0.0,0.0
2072,724957,SONOMA COUNTY AIRPORT,CA,38.504,-122.81,25.0,56.847382920110185,111.0,0.0,31.619999999999997,0.0,1.0,1.0
233,749484,SOUTH COUNTY AIRPORT OF SANTA,CA,37.082,-121.597,28.4,58.85260273972603,109.4,0.0,7199.279999999999,0.0,0.0,0.0
2512,724920,STOCKTON METROPOLITAN AIRPORT,CA,37.889,-121.226,27.0,63.046301369863016,115.0,0.0,8.79,0.0,0.0,0.0
2156,725837,SUSANVILLE MUNI,CA,40.376,-120.573,3.2,51.05101351351351,102.2,0.0,6299.369999999999,0.0,0.0,0.0
390,749171,TEHACHAPI MUNICIPAL AIRPORT,CA,35.135,-118.439,17.6,57.3735294117647,100.4,0.0,10998.899999999998,0.0,0.0,0.0
542,997734,TIBURON PIER,CA,37.92,-122.45,39.2,57.2209726443769,96.8,0.0,0.0,0.0,0.0,0.0
664,998013,TIJUANA RIVER RESERVE,CA,32.575,-117.127,39.9,62.52790055248618,95.0,0.0,5.38,0.0,0.0,0.0
70,A07053,TRINITY CENTER AIRPORT,CA,40.983,-122.694,17.6,34.04761904761905,57.2,0.0,0.0,0.0,0.0,0.0
1331,725846,TRUCKEE-TAHOE AIRPORT,CA,39.32,-120.139,-9.9,42.993698630137,95.0,2691.2000000000003,13198.679999999998,0.0,0.0,0.0
2123,690150,TWENTY NINE PALMS,CA,34.3,-116.167,24.1,69.31285714285715,111.0,0.0,4202.419999999999,0.0,0.0,0.0
1970,725905,UKIAH MUNI,CA,39.117,-123.2,26.1,59.13873626373626,116.1,0.0,35.599999999999994,0.0,0.0,0.0
454,720576,UNIVERSITY AIRPORT,CA,38.533,-121.783,26.6,61.36573033707866,111.2,0.0,0.0,0.0,0.0,0.0
1910,722886,VAN NUYS,CA,34.21,-118.49,35.1,68.44849315068494,109.9,0.0,11.540000000000001,0.0,0.0,0.0
1137,723930,VANDENBERG AFB,CA,34.717,-120.567,29.3,54.90588235294118,90.1,0.0,1016.8199999999999,0.0,0.0,0.0
1135,723896,VISALIA MUNICIPAL AIRPORT,CA,36.317,-119.4,28.9,63.85837988826815,111.0,0.0,10.46,0.0,0.0,0.0
1489,745058,WATSONVILLE MUNICIPAL ARPT,CA,36.936,-121.789,28.9,55.16520547945206,99.0,0.0,41.32000000000001,0.0,0.0,0.0
1488,745057,WHITMAN AIRPORT,CA,34.259,-118.413,39.2,71.27839335180055,109.4,0.0,2999.7,0.0,0.0,0.0
1334,725940,WOODLEY ISLAND (NEW 10/94)   ,CA,40.81,-124.16,27.0,51.62688821752266,75.9,0.0,45.3,0.0,0.0,0.0
1208,724838,YUBA COUNTRY AIRPORT,CA,39.102,-121.568,24.1,63.100821917808226,115.0,0.0,19.12,0.0,0.0,0.0
1081,722955,ZAMPERINI FIELD AIRPORT,CA,33.803,-118.34,33.8,67.62872928176796,107.6,0.0,4199.579999999999,0.0,0.0,0.0
1869,745310,AIR FORCE ACADEMY,CO,38.967,-104.817,-18.9,47.41900826446282,94.8,102.19999999999999,1422.3199999999997,0.0,4.0,4.0
1197,724676,ASPEN-PITKIN COUNTY ARPT,CO,39.23,-106.871,-13.0,41.78356164383561,89.1,0.0,29.8,0.0,0.0,0.0
1606,724699,ATCT ROCKY MOUNTAIN METRO,CO,39.9,-105.117,-14.8,52.38429752066115,100.4,0.0,19998.0,0.0,1.0,1.0
559,720385,BERTHOUD PASS,CO,39.8,-105.767,-16.6,25.303641456582636,60.8,0.0,18798.12,0.0,0.0,0.0
206,720531,BLAKE FIELD AIRPORT,CO,38.783,-108.067,4.6,54.0745205479452,104.9,0.0,5502.92,0.0,0.0,0.0
362,720533,BOULDER MUNICIPAL AIRPORT,CO,40.033,-105.217,-13.0,51.966388888888886,100.4,0.0,9003.689999999999,0.0,0.0,0.0
2039,724695,BUCKLEY AFB,CO,39.7,-104.75,-20.4,50.7271978021978,100.4,154.2,637.2399999999999,0.0,2.0,2.0
1194,724666,CENTENNIAL AIRPORT,CO,39.57,-104.849,-16.1,50.457142857142856,99.0,0.0,25.580000000000002,0.0,0.0,0.0
356,720528,CENTRAL COLORADO REGIONAL AP,CO,38.698,-106.07,-29.2,44.12328767123287,89.8,0.0,14598.539999999999,0.0,0.0,0.0
149,720642,CHEYENNE MTN AS,CO,38.75,-104.85,-12.6,47.682935153583614,90.1,0.0,805.8399999999998,0.0,0.0,0.0
2475,724660,CITY OF COLORADO SPRINGS MUNI,CO,38.81,-104.688,-9.9,51.91625344352617,100.0,81.10000000000001,13.799999999999999,0.0,0.0,0.0
1946,724698,COLORADO PLAINS RGNL,CO,40.183,-103.217,-18.9,50.041873278236906,104.0,0.0,21.759999999999998,0.0,0.0,0.0
1193,724646,COMANCHE NATIONAL GRASSLAND,CO,37.283,-102.614,-9.9,54.85738161559888,105.1,0.0,23.560000000000002,0.0,0.0,0.0
948,722061,COPPER MOUNTAIN,CO,39.467,-106.15,-7.6,35.58947368421053,73.4,0.0,32808.63999999999,0.0,0.0,0.0
1202,724767,CORTEZ MUNICIPAL AIRPORT,CO,37.307,-108.626,0.0,50.04821917808219,100.9,0.0,20.3,0.0,0.0,0.0
538,726391,COTTONWOOD PASS,CO,38.78,-106.22,-5.8,42.54547945205479,82.4,0.0,35396.45999999999,0.0,0.0,0.0
1324,725700,CRAIG-MOFFAT AIRPORT,CO,40.493,-107.524,-25.1,41.14958677685951,97.0,0.0,32.12,0.0,0.0,0.0
2105,725650,DENVER INTERNATIONAL AIRPORT,CO,39.833,-104.658,-24.0,51.457851239669424,100.9,126.59999999999998,12.44,2.0,1.0,7.0
1190,724625,DURA-LA PLATA CO AIRPORT,CO,37.143,-107.76,-9.9,48.160164835164835,96.1,0.0,26.02,0.0,0.0,0.0
1945,724675,EAGLE CO RGNL,CO,39.633,-106.917,-16.6,43.85576923076923,95.0,0.0,1020.1400000000001,0.0,0.0,0.0
771,722817,ELLICOTT-B AFA,CO,38.767,-104.3,-18.6,48.479281767955804,97.9,0.0,309.34999999999997,0.0,0.0,0.0
90,720534,ERIE MUNICIPAL AIRPORT,CO,40.017,-105.05,-18.9,50.16173184357542,101.7,0.0,12998.699999999997,0.0,0.0,0.0
1861,724680,FORT CARSON/BUTTS,CO,38.7,-104.767,-13.7,50.90275482093664,99.1,53.199999999999996,2213.08,0.0,3.0,3.0
1204,724769,FORT COLLINS LOVELAND AP,CO,40.45,-105.017,-18.0,50.05138121546962,104.0,0.0,617.9999999999998,0.0,0.0,0.0
181,720535,FORT MORGAN MUNICIPAL AIRPORT,CO,40.333,-103.8,-18.4,49.01633802816901,102.2,0.0,11698.829999999998,0.0,0.0,0.0
1326,725717,GARFIELD CO REGIONAL ARPT,CO,39.528,-107.72,-13.0,48.22747252747253,100.9,0.0,26.32,0.0,0.0,0.0
32,720536,GRANBY GRAND CO,CO,40.09,-105.917,-22.2,36.083746556473834,86.0,0.0,19798.019999999993,0.0,0.0,0.0
2247,724760,GRAND JUNCTION REGIONAL AIRPO,CO,39.134,-108.54,-2.0,53.57232876712329,102.9,41.2,10.419999999999998,0.0,0.0,0.0
1203,724768,GREELEY-WELD COUNTY ARPT,CO,40.436,-104.632,-25.1,48.2267217630854,106.0,0.0,1410.4,0.0,0.0,0.0
1839,724677,GUNSN-CRSTED BUTTE RGL APT,CO,38.533,-106.933,-24.0,39.866575342465744,89.1,0.0,413.09999999999985,0.0,0.0,0.0
391,720532,HARRIET ALEXANDER FIELD AIRPO,CO,38.533,-106.05,-14.3,47.17260273972602,90.7,0.0,0.0,0.0,0.0,0.0
296,720537,HOLYOKE AIRPORT,CO,40.567,-102.267,-13.0,52.47403314917128,107.6,0.0,9599.039999999999,0.0,0.0,0.0
111,720987,JULIET (PEETZ)               ,CO,40.967,-103.2,-10.5,47.95018315018315,103.3,0.0,5.19,0.0,0.0,0.0
1198,724689,KIT CARSON COUNTY AIRPORT,CO,39.245,-102.284,-15.0,52.01625344352616,106.0,0.0,22.840000000000003,0.0,0.0,0.0
2461,724635,LA JUNTA MUNICIPAL AIRPORT,CO,38.049,-103.513,-13.0,54.03480662983425,106.0,0.0,8.65,0.0,0.0,0.0
1473,740002,LA VETA PASS AWOS-3 ARPT     ,CO,37.5,-105.167,-9.4,36.39479452054794,77.0,0.0,31196.879999999994,0.0,0.0,0.0
1192,724636,LAMAR MUNICIPAL AIRPORT,CO,38.072,-102.687,-11.0,53.60515759312322,109.9,0.0,25.300000000000004,0.0,0.0,0.0
1195,724673,LEADVILLE/LAKE COUNTY APT,CO,39.229,-106.317,-22.0,34.8304109589041,79.0,0.0,31.32,0.0,0.0,0.0
63,720989,LIMA (GROVER)                ,CO,40.917,-103.7,-9.4,29.37903225806452,69.1,0.0,2399.89,0.0,0.0,0.0
1944,724665,LIMON MUNI,CO,39.267,-103.667,-20.0,48.54183381088825,102.0,0.0,22.88,0.0,0.0,0.0
1509,A00005,MC ELORY AIRFIELD AIRPORT,CO,40.054,-106.369,-31.0,36.94033149171272,91.4,0.0,12599.71,0.0,0.0,0.0
294,720852,MEADOW LAKE AIRPORT,CO,38.946,-104.57,-38.0,48.033144475920686,96.4,0.0,13598.64,0.0,0.0,0.0
1196,724674,MEEKER AIRPORT,CO,40.044,-107.889,-16.1,42.769505494505495,95.0,0.0,33.419999999999995,0.0,0.0,0.0
185,720991,MIKE (HAXTUN)                ,CO,40.7,-103.483,-17.0,48.996306818181814,102.6,0.0,2506.7699999999995,0.0,0.0,0.0
999,722203,MONARCH PASS AWOS-3 ARPT     ,CO,38.483,-106.317,-9.4,30.6409604519774,69.8,0.0,28397.159999999996,0.0,0.0,0.0
1201,724765,MONTROSE REGIONAL AIRPORT,CO,38.506,-107.899,-5.1,50.31616438356164,98.1,0.0,14.479999999999999,0.0,0.0,0.0
1544,722155,MONUMENT HILL AWOS-3 ARPT    ,CO,39.217,-104.633,-18.4,45.14466292134831,89.6,0.0,18805.079999999998,0.0,0.0,0.0
64,720992,NOVEMBER (GROVER)            ,CO,40.633,-103.833,-15.0,52.886315789473684,101.8,0.0,2809.9100000000003,0.0,0.0,0.0
138,720993,OSCAR (GROVER)               ,CO,40.883,-104.0,14.9,65.71825396825398,96.1,0.0,18.219999999999995,0.0,0.0,0.0
2243,724645,PERRY STOKES AIRPORT,CO,37.262,-104.338,-8.0,52.41145251396648,100.9,0.0,13.260000000000002,0.0,0.0,0.0
2463,724640,PUEBLO MEMORIAL AIRPORT,CO,38.289,-104.506,-15.0,54.375574712643676,108.0,38.9,9.69,0.0,0.0,0.0
811,722333,SAGUACHE MUNICIPAL AIRPORT,CO,38.097,-106.169,-13.0,44.17232876712328,89.6,0.0,19198.08,0.0,0.0,0.0
2242,724620,SAN LUIS VALLEY REGIONAL AIRP,CO,37.439,-105.861,-27.0,43.362809917355364,91.9,48.5,10.860000000000003,0.0,0.0,0.0
160,720641,SCHRIEVER AFB,CO,38.8,-104.517,12.2,38.08,62.6,0.0,0.0,0.0,0.0,0.0
3,720844,SPANISH PEAKS,CO,37.697,-104.785,-14.3,54.0058495821727,100.4,0.0,0.0,0.0,0.0,0.0
274,724678,STEAMBOAT SPRINGS/BOB ADAMS F,CO,40.517,-106.867,-17.0,39.931780821917805,91.6,0.0,0.0,0.0,0.0,0.0
297,720544,STERLING MUNICIPAL AIRPORT,CO,40.617,-103.267,-16.6,49.43649025069639,102.2,0.0,10598.94,0.0,0.0,0.0
395,720539,STEVENS FIELD AIRPORT,CO,37.283,-107.05,-12.1,45.21208791208792,90.1,0.0,19398.059999999998,0.0,0.0,0.0
518,726392,SUNLIGHT MTN,CO,39.43,-107.38,-9.4,34.008287292817684,75.2,0.0,35596.43999999999,0.0,0.0,0.0
1191,724627,TELLURIDE REGIONAL AIRPORT,CO,37.95,-107.9,-4.0,42.753698630136995,82.4,0.0,33396.65999999999,0.0,0.0,0.0
293,720538,VANCE BRAND AIRPORT,CO,40.167,-105.167,-17.9,52.270194986072426,104.2,0.0,6106.889999999999,0.0,0.0,0.0
1705,726396,WILKERSON PASS,CO,39.05,-105.516,-5.8,35.29449035812672,75.2,0.0,30396.959999999995,0.0,0.0,0.0
965,722101,WOLF CREEK PASS AWOS-3 AIRPOR,CO,37.45,-106.8,-7.6,31.647123287671235,69.8,0.0,34996.499999999985,0.0,0.0,0.0
1780,725710,YAMPA VALLEY AIRPORT,CO,40.481,-107.218,-14.1,42.645604395604394,91.9,0.0,508.72,0.0,0.0,0.0
2504,725080,BRADLEY INTERNATIONAL AIRPORT,CT,41.938,-72.682,-2.0,52.93178082191782,97.0,123.2,47.86999999999999,0.0,1.0,1.0
704,997290,BRIDGEPORT,CT,41.17,-73.18,5.0,53.42033426183845,91.6,0.0,0.0,0.0,0.0,0.0
465,720545,CHESTER AIRPORT,CT,41.384,-72.506,3.2,53.20986301369862,95.0,0.0,33396.65999999999,0.0,0.0,0.0
1229,725086,DANBURY MUNICIPAL AIRPORT,CT,41.371,-73.483,-0.9,53.46301369863014,95.0,0.0,286.79999999999995,0.0,0.0,0.0
1997,725046,GROTON NEW LONDON,CT,41.317,-72.033,1.9,53.87664835164835,93.0,0.0,78.74,0.0,0.0,0.0
2002,725087,HARTFORD BRAINARD,CT,41.733,-72.65,1.9,54.19041095890412,99.0,0.0,80.09999999999997,0.0,0.0,0.0
2459,725040,IGOR I SIKORSKY MEMORIAL AIRP,CT,41.164,-73.127,6.1,53.814246575342466,93.9,71.30000000000001,37.82,0.0,0.0,0.0
1218,725027,MERIDEN MARKHAM MUNI ARPT,CT,41.51,-72.828,-6.0,52.52821917808219,96.1,0.0,97.70000000000002,0.0,0.0,0.0
700,997284,NEW HAVEN,CT,41.28,-72.88,6.4,53.35988857938719,89.2,0.0,0.0,0.0,0.0,0.0
583,997283,NEW LONDON,CT,41.35,-72.08,6.6,53.04608938547486,90.3,0.0,0.0,0.0,0.0,0.0
1830,994750,NEW LONDON LEDGE - LEDGE LIGH,CT,41.31,-72.08,9.7,52.92413793103448,84.4,0.0,0.0,0.0,0.0,0.0
1999,725045,TWEED NEW HAVEN,CT,41.25,-72.883,3.9,55.358082191780824,95.0,0.0,55.81999999999998,0.0,0.0,0.0
1219,725029,WATERBURY-OXFORD AIRPORT,CT,41.483,-73.133,0.0,50.86356164383562,91.9,0.0,282.59999999999997,0.0,0.0,0.0
1610,725084,WINDHAM AIRPORT,CT,41.742,-72.184,-9.0,51.21068493150684,95.0,0.0,72.23999999999998,0.0,0.0,0.0
714,997314,WASHINGTON,DC,38.87,-77.02,9.3,59.175000000000004,95.7,0.0,0.0,0.0,0.0,0.0
686,997694,DELAWARE CITY,DE,39.58,-75.58,6.6,56.441225626740945,93.2,0.0,0.0,0.0,0.0,0.0
673,998169,DELAWARE RESERVE,DE,39.083,-75.433,8.1,62.99087136929461,95.9,0.0,0.0,0.0,0.0,0.0
2061,724088,DOVER AFB,DE,39.117,-75.467,8.6,56.662465753424655,97.2,40.0,1672.5,0.0,0.0,0.0
698,997281,LEWES,DE,38.78,-75.12,12.4,58.0187675070028,94.6,0.0,0.0,0.0,0.0,0.0
1768,724180,NEW CASTLE COUNTY AIRPORT,DE,39.674,-75.606,7.0,56.71972602739726,97.0,17.2,43.46,0.0,0.0,0.0
625,997372,REEDY POINT,DE,39.9,-75.57,7.7,56.36657381615599,96.6,0.0,0.0,0.0,0.0,0.0
1152,724093,SUSSEX COUNTY AIRPORT,DE,38.69,-75.363,8.1,58.09178082191781,97.0,0.0,81.79999999999998,0.0,0.0,0.0
1994,722104,ALBERT WHITTED,FL,27.767,-82.633,35.1,74.61698630136985,96.1,0.0,93.72,1.0,0.0,3.0
2005,722200,APALACHICOLA MUNI,FL,29.733,-85.033,21.0,69.33013698630135,99.0,0.0,150.24,0.0,0.0,0.0
671,997992,APALACHICOLA RESERVE,FL,29.783,-84.883,21.0,71.14833836858007,95.7,0.0,0.9500000000000001,0.0,0.0,0.0
515,994045,APPALACHICOLA,FL,29.73,-84.98,22.3,69.56452513966481,95.7,0.0,0.0,0.0,0.0,0.0
25,747960,AVON PARK GUNNERY RANGE,FL,27.65,-81.33,27.3,72.68798882681563,97.7,0.0,1068.54,0.0,0.0,0.0
1738,722123,BARTOW MUNICIPAL AIRPORT,FL,27.95,-81.783,28.4,73.7,96.8,0.0,31196.879999999994,0.0,0.0,0.0
640,994006,BIG CARLOS PASS,FL,26.4,-81.88,40.1,77.12352941176471,94.6,0.0,0.0,0.0,0.0,0.0
2340,722215,BOB SIKES AIRPORT,FL,30.783,-86.517,18.0,66.97123287671232,104.0,0.0,56.77,0.0,0.0,0.0
1515,722022,BOCA RATON AIRPORT,FL,26.378,-80.108,32.0,79.63068493150686,96.8,0.0,18798.12,0.0,0.0,0.0
1849,747940,CAPE CANAVERAL AFS SKID STRIP,FL,28.468,-80.567,31.3,73.52774725274726,95.0,0.0,694.26,0.0,0.0,0.0
950,722067,CECIL FIELD AIRPORT,FL,30.219,-81.876,19.4,69.60575342465752,102.2,0.0,31196.879999999994,0.0,0.0,0.0
1843,994640,CEDAR KEY,FL,29.14,-83.03,25.7,71.06136986301371,90.3,0.0,0.0,0.0,0.0,0.0
939,722034,CHARLOTTE COUNTY AIRPORT,FL,26.917,-81.991,30.0,74.22354570637118,97.0,0.0,331.1,0.0,0.0,0.0
736,A00024,CHOCTAW NAVAL OUTLYING FIELD,FL,30.507,-86.96,18.0,66.08907563025211,95.0,0.0,335.5999999999999,0.0,0.0,0.0
716,997345,CLEARWATER BEACH,FL,27.97,-82.83,33.3,73.44209039548022,92.1,0.0,0.0,0.0,0.0,0.0
1802,747820,CRAIG MUNICIPAL AIRPORT,FL,30.336,-81.515,26.1,70.97397260273974,102.9,0.0,49.59,0.0,0.0,0.0
2442,722120,CROSS CITY AIRPORT,FL,29.633,-83.105,19.0,68.89698630136986,101.5,0.0,42.0,0.0,0.0,0.0
397,720655,CRYSTAL RIVER AIRPORT,FL,28.867,-82.567,23.0,70.53583815028902,98.6,0.0,14398.560000000001,0.0,0.0,0.0
1804,747870,DAYTONA BEACH INTERNATIONAL A,FL,29.183,-81.048,27.0,72.42767123287672,100.9,0.0,50.609999999999985,1.0,0.0,3.0
207,720904,DELAND MUNICIPAL AIRPORT SIDN,FL,29.067,-81.283,25.0,71.26198347107436,98.6,0.0,6127.78,0.0,0.0,0.0
951,722069,DESTIN-FT.WALTON BEACH APT,FL,30.4,-86.472,21.9,71.36739726027396,102.0,0.0,690.4399999999998,0.0,0.0,0.0
1874,722246,DUKE FLD,FL,30.65,-86.523,16.0,66.2924791086351,100.4,0.0,1114.7200000000003,0.0,0.0,0.0
1900,722053,EXECUTIVE,FL,28.55,-81.333,30.0,74.69095890410962,99.0,0.0,138.44000000000003,0.0,0.0,0.0
680,997347,FERNANDINA BEACH,FL,30.67,-81.47,26.4,72.57130919220056,101.1,0.0,0.0,0.0,0.0,0.0
257,720946,FERNANDINA BEACH MUNICIPAL AI,FL,30.617,-81.467,23.0,69.51068493150686,102.2,0.0,9113.46,0.0,0.0,0.0
393,720672,FLAGLER COUNTY EXECUTIVE AIRP,FL,29.467,-81.206,24.8,70.49640883977901,98.6,0.0,4908.08,0.0,0.0,0.0
674,994008,FRED HOWARD PARK,FL,28.12,-82.8,33.1,73.53204419889504,103.6,0.0,0.0,0.0,0.0,0.0
1803,747830,FT LAUD/HOLLYWOOD INTL APT,FL,26.079,-80.162,39.9,77.9449315068493,93.9,0.0,56.44,0.0,0.0,0.0
940,722039,FT LAUDER EXECUTIVE ARPT,FL,26.197,-80.171,39.9,77.92576177285319,96.1,0.0,1517.6400000000003,4.0,0.0,12.0
678,997346,FT MYERS,FL,26.65,-81.87,38.3,75.31904761904762,96.1,0.0,0.0,0.0,0.0,0.0
1797,747560,GAINESVILLE REGIONAL AIRPORT,FL,29.692,-82.276,21.9,69.55780821917809,99.0,0.0,53.38,0.0,0.0,0.0
662,998000,GUANA TOLOMATO MATANZAS,FL,29.65,-81.217,24.3,70.38842975206612,100.4,0.0,12.46,0.0,0.0,0.0
1527,722014,HERNANDO COUNTY AIRPORT,FL,28.474,-82.454,26.1,71.7786301369863,98.1,0.0,2266.4,0.0,0.0,0.0
2058,722026,HOMESTEAD ARB,FL,25.483,-80.383,39.7,76.91205479452054,92.5,0.0,323.46000000000004,0.0,0.0,0.0
2064,747770,HURLBURT FIELD (AF)          ,FL,30.417,-86.683,18.5,67.92582417582419,98.4,0.0,2093.3799999999997,1.0,0.0,3.0
398,724737,INVERNESS AIRPORT,FL,28.817,-82.317,24.8,70.0509589041096,96.8,0.0,16798.32,0.0,0.0,0.0
2384,722060,JACKSONVILLE INTERNATIONAL AI,FL,30.495,-81.694,19.9,68.61041095890411,100.0,0.0,50.779999999999994,0.0,0.0,0.0
2182,722065,JACKSONVILLE NAS,FL,30.233,-81.667,26.1,71.56493150684932,102.9,0.0,46.82999999999999,0.0,0.0,0.0
1844,994650,KEATON BEACH,FL,29.82,-83.59,22.5,69.0616045845272,92.8,0.0,0.0,0.0,0.0,0.0
1529,722029,KENDALL-TAMIAMI EXEC ARPT,FL,25.648,-80.433,39.0,77.12585227272727,96.1,0.0,323.8,0.0,0.0,0.0
1689,747946,KENNEDY SPACE CENTER,FL,28.617,-80.683,29.8,72.19395604395604,94.6,0.0,1524.1999999999998,0.0,0.0,0.0
681,997348,KEY WEST,FL,24.55,-81.8,51.8,79.81756373937677,95.0,0.0,0.0,0.0,0.0,0.0
2180,722010,KEY WEST INTERNATIONAL AIRPOR,FL,24.557,-81.755,50.0,78.85095890410959,93.0,0.0,240.71999999999997,4.0,0.0,12.0
2338,722015,KEY WEST NAS,FL,24.583,-81.683,54.0,83.78301369863013,98.1,0.0,1330.68,8.0,0.0,24.0
265,749048,KEYSTONE AIRPARK,FL,29.845,-82.048,21.2,68.64903581267218,98.6,0.0,0.0,0.0,0.0,0.0
934,722011,KISSIMMEE GATEWAY AIRPORT,FL,28.29,-81.437,28.9,73.3,97.0,0.0,28397.159999999996,0.0,0.0,0.0
1536,722119,LAKELAND LINDER REGIONAL AIRP,FL,28.0,-82.05,28.4,72.80521978021979,95.2,0.0,292.4,1.0,0.0,3.0
1004,722213,LEESBURG REGIONAL AIRPORT,FL,28.821,-81.81,28.9,72.44027397260274,98.1,0.0,116.44,0.0,0.0,0.0
1845,994620,LONG KEY  FL,FL,24.84,-80.86,45.7,78.89131736526946,89.1,0.0,0.0,0.0,0.0,0.0
2059,747880,MACDILL AFB/TAMPA,FL,27.85,-82.5,30.6,73.16109589041098,94.5,0.0,1874.74,0.0,0.0,0.0
180,721041,MARCO ISLAND,FL,25.995,-81.673,37.0,75.15924764890282,97.0,0.0,8599.919999999998,0.0,0.0,0.0
1856,747760,MARIANNA MUNI,FL,30.938,-85.182,17.1,66.1246105919003,102.0,0.0,93.56,0.0,0.0,0.0
637,997358,MAYPORT,FL,30.397,-81.43,25.7,70.43352272727273,98.2,0.0,0.0,0.0,0.0,0.0
2183,722066,MAYPORT NAF,FL,30.4,-81.417,27.0,71.30747922437675,102.9,0.0,243.58999999999997,0.0,0.0,0.0
2013,722040,MELBOURNE REGIONAL,FL,28.1,-80.65,30.9,74.21534246575344,97.0,0.0,104.69999999999999,0.0,0.0,0.0
2181,722020,MIAMI INTERNATIONAL AIRPORT,FL,25.788,-80.317,42.1,78.40986301369863,96.1,0.0,73.08999999999999,2.0,0.0,6.0
104,998213,MIDDLE TAMPA BAY,FL,27.65,-82.583,35.2,73.53047091412743,91.8,0.0,0.0,0.0,0.0,0.0
717,997351,NAPLES,FL,26.12,-81.8,42.3,79.94354243542435,95.9,0.0,0.0,0.0,0.0,0.0
2087,722038,NAPLES MUNICIPAL AIRPORT,FL,26.155,-81.775,37.0,76.12608695652172,96.1,0.0,93.69999999999999,1.0,0.0,3.0
1020,722361,NEW SMYRNA BEACH MUNICIPAL AI,FL,29.054,-80.948,28.4,72.82422360248448,98.6,0.0,11798.819999999996,0.0,0.0,0.0
1530,722037,NORTH PERRY AIRPORT,FL,25.999,-80.241,39.0,77.15315068493149,93.9,0.0,521.96,0.0,0.0,0.0
270,720735,NORTHWEST FLORIDA BEACHES INT,FL,30.349,-85.788,19.0,67.76958904109588,99.0,0.0,123.85999999999999,0.0,0.0,0.0
946,722055,OCALA INTERNATIONAL AIRPORT-J,FL,29.167,-82.233,21.0,70.68164383561644,99.0,0.0,12034.539999999997,0.0,0.0,0.0
571,722261,OKEECHOBEE CO,FL,27.263,-80.85,30.2,73.41949860724235,95.0,0.0,42795.71999999998,0.0,0.0,0.0
688,997705,OLD PORT TAMPA,FL,27.85,-82.55,32.9,73.58913649025071,93.7,0.0,0.0,0.0,0.0,0.0
1528,722024,OPA LOCKA AIRPORT,FL,25.907,-80.28,41.0,77.52794520547945,95.0,0.0,124.24,0.0,0.0,0.0
2375,722050,ORLANDO INTERNATIONAL AIRPORT,FL,28.434,-81.325,30.0,73.9454794520548,99.0,0.0,62.27,0.0,0.0,0.0
1901,722057,ORLANDO SANFORD,FL,28.767,-81.233,28.0,72.75452054794519,97.0,0.0,130.24,0.0,1.0,1.0
1015,722341,ORMOND BEACH MUNICIPAL AIRPOR,FL,29.296,-81.113,26.6,73.11842900302116,98.6,0.0,14798.519999999997,0.0,0.0,0.0
2455,722106,PAGE FIELD AIRPORT,FL,26.585,-81.861,35.1,76.34265927977839,98.1,0.0,167.26000000000005,0.0,0.0,0.0
2450,722030,PALM BEACH INTERNATIONAL AIRP,FL,26.685,-80.099,37.0,77.28465753424659,96.1,0.0,55.12,1.0,0.0,3.0
718,997352,PANAMA CITY BEACH,FL,30.22,-85.88,18.9,69.23212290502794,93.4,0.0,0.0,0.0,0.0,0.0
1888,747950,PATRICK AFB/COCOA B,FL,28.233,-80.6,33.6,74.93746556473829,95.4,0.0,1648.5200000000002,0.0,0.0,0.0
642,994047,PENSACOLA,FL,30.4,-87.22,20.1,69.88575418994414,99.1,0.0,0.0,0.0,0.0,0.0
2427,722225,PENSACOLA NAS,FL,30.35,-87.317,19.9,69.5358904109589,100.0,0.0,752.1599999999999,1.0,0.0,3.0
2118,722223,PENSACOLA REGIONAL AIRPORT,FL,30.478,-87.187,19.9,70.08739726027397,100.9,0.0,70.53,1.0,0.0,3.0
749,720374,PETER O KNIGHT AIRPORT,FL,27.916,-82.449,37.4,68.99491525423728,89.6,0.0,4999.499999999999,0.0,0.0,0.0
748,720373,PLANT CITY MUNICIPAL AIRPORT,FL,28.0,-82.164,32.0,76.11965317919075,100.4,0.0,13698.63,0.0,0.0,0.0
944,722049,POMPANO BEACH AIRPARK ARPT,FL,26.25,-80.108,39.9,78.42602739726027,95.0,0.0,310.6399999999999,0.0,0.0,0.0
651,997701,PORT MANATEE,FL,27.63,-82.57,34.9,72.81309192200557,92.3,0.0,0.0,0.0,0.0,0.0
617,998008,ROOKERY BAY RESERVE,FL,26.033,-81.7,30.6,74.6542699724518,95.7,0.0,32.05,0.0,0.0,0.0
970,722115,SARASOTA/BRADENTON INTL AP,FL,27.401,-82.559,34.0,73.96164383561644,96.1,0.0,106.53999999999999,0.0,0.0,0.0
131,994951,SEBASTIAN INLET STATE PARK,FL,27.862,-80.445,40.1,74.22286821705426,89.6,0.0,0.0,0.0,0.0,0.0
2488,749045,SEBRING RGNL,FL,27.456,-81.342,31.1,73.66966966966966,98.6,0.0,3231.46,0.0,0.0,0.0
2127,994450,SOMBRERO KEY  FL,FL,24.63,-81.11,48.0,78.66465753424659,89.2,0.0,0.0,0.0,0.0,0.0
943,722046,SPACE COAST REGIONAL AIRPORT,FL,28.517,-80.8,33.8,78.76308539944904,100.4,0.0,12798.72,0.0,0.0,0.0
1003,722212,ST AUGUSTINE AIRPORT,FL,29.959,-81.34,25.0,69.89148264984227,100.9,0.0,284.86000000000007,0.0,0.0,0.0
966,722103,ST LUCIE COUNTY INTL ARPT,FL,27.498,-80.377,28.9,74.3162087912088,97.0,0.0,99.81999999999996,2.0,0.0,6.0
971,722116,ST PETE-CLWTR INTL AIRPORT,FL,27.911,-82.688,33.1,74.05424657534246,96.1,0.0,2278.86,0.0,0.0,0.0
719,997353,ST PETERSBURG,FL,27.75,-82.62,34.2,74.60642458100557,96.4,0.0,0.0,0.0,0.0,0.0
968,722108,SW FLORIDA INTN AIRPORT,FL,26.536,-81.755,35.1,75.3710743801653,98.1,0.0,332.24,0.0,1.0,1.0
2484,722140,TALLAHASSEE REGIONAL AIRPORT,FL,30.393,-84.353,18.0,68.49041095890409,104.0,0.0,60.959999999999994,0.0,0.0,0.0
2513,722110,TAMPA INTERNATIONAL AIRPORT,FL,27.962,-82.54,30.9,75.56016483516483,98.1,0.0,60.85,0.0,0.0,0.0
935,722016,THE FL KEYS MARATHON ARPT,FL,24.726,-81.052,46.0,79.74903581267216,96.1,0.0,271.86,0.0,0.0,0.0
720,997354,TRIDENT PIER,FL,28.42,-80.58,34.0,72.43131672597865,91.2,0.0,0.0,0.0,0.0,0.0
1896,747750,TYNDALL AFB,FL,30.067,-85.583,19.2,69.19013698630138,97.2,0.0,1098.3199999999997,0.0,0.0,0.0
211,720964,TYNDALL DRONE RUNWAY,FL,30.033,-85.533,19.9,70.18948863636363,99.1,0.0,1333.8499999999995,0.0,0.0,0.0
721,997356,VACA KEY,FL,24.72,-81.1,47.5,78.78440111420612,89.6,0.0,0.0,0.0,0.0,0.0
2371,722210,VALPARAISO/EGLIN AF,FL,30.483,-86.517,18.0,68.04986301369865,100.0,0.0,4702.5,0.0,0.0,0.0
1733,722021,VANDENBERG AIRPORT,FL,28.014,-82.345,30.2,73.41986531986532,98.6,0.0,24397.56,0.0,0.0,0.0
2131,994220,VENICE  FL,FL,27.07,-82.45,35.4,73.54794520547944,90.1,0.0,0.0,0.0,0.0,0.0
276,722118,VENICE MUNICIPAL AIRPORT,FL,27.072,-82.44,35.6,74.52025316455696,93.2,0.0,23797.619999999995,0.0,0.0,0.0
331,747930,VERO BEACH MUNICIPAL AIRPORT,FL,27.651,-80.42,28.0,74.46219178082193,98.1,0.0,83.15999999999998,0.0,0.0,0.0
383,997355,VIRGINIA KEY,FL,25.73,-80.15,44.2,80.36148867313915,99.7,0.0,0.0,0.0,0.0,0.0
735,A00023,WHITEHOUSE NAVAL OUTLYING FIE,FL,30.35,-81.883,21.9,69.26755162241888,99.0,0.0,1216.49,0.0,0.0,0.0
741,720383,WHITING FIELD NAVAL AIR STATI,FL,30.704,-87.023,18.0,67.64613259668508,100.9,0.0,3822.81,0.0,0.0,0.0
2185,722226,WHITING FIELD NAVAL AIR STATI,FL,30.717,-87.017,18.0,66.26426426426427,100.9,0.0,1536.2099999999998,0.0,0.0,0.0
1805,747931,WINTER HAVEN'S GILBERT APT,FL,28.062,-81.754,30.9,74.45122699386503,109.0,0.0,243.08999999999997,0.0,0.0,0.0
1556,722189,WITHAM FIELD AIRPORT,FL,27.182,-80.221,37.4,75.31156250000001,95.0,0.0,22408.9,0.0,0.0,0.0
176,721042,ZEPHYRHILLS MUNICIPAL AIRPORT,FL,28.228,-82.156,24.1,70.53130193905817,97.7,0.0,5446.549999999999,0.0,0.0,0.0
1902,722160,ALBANY MUNICIPAL,GA,31.533,-84.183,16.0,68.04520547945206,102.9,0.0,88.45999999999997,0.0,0.0,0.0
2348,723110,ATHENS/BEN EPPS AIRPORT,GA,33.948,-83.328,7.0,62.5854794520548,102.0,3.2,48.7,0.0,0.0,0.0
2396,722180,AUGUSTA REGIONAL AT BUSH FIEL,GA,33.364,-81.963,12.0,63.854794520547955,100.0,0.0,48.83,0.0,0.0,0.0
1755,723160,BACON COUNTY AIRPORT,GA,31.536,-82.507,19.0,67.18495821727018,105.1,0.0,27.29,0.0,0.0,0.0
819,720348,BALDWIN COUNTY AIRPORT,GA,33.154,-83.241,12.2,67.64747474747475,109.4,0.0,27197.27999999999,0.0,0.0,0.0
579,720409,BLAIRSVILLE AIRPORT,GA,34.85,-83.983,0.1,56.89171270718232,93.9,0.0,1944.4999999999998,0.0,0.0,0.0
1540,722136,BRUNSWICK GOLDEN ISLES APT,GA,31.259,-81.466,18.5,67.38383561643836,100.6,0.0,9665.300000000001,0.0,0.0,0.0
1545,722156,CARTERSVILLE AIRPORT,GA,34.123,-84.849,6.8,61.55399449035813,96.8,0.0,105.06,0.0,0.0,0.0
1810,722109,CHEROKEE COUNTY AIRPORT,GA,34.317,-84.417,3.7,59.66962750716332,98.6,0.0,21814.0,0.0,0.0,0.0
477,722691,CLAXTON EVANS COUNTY AIRPORT,GA,32.2,-81.87,19.8,66.86273972602741,102.4,0.0,32596.73999999999,0.0,0.0,0.0
1688,747812,COBB CO-MC COLLUM FLD ARPT,GA,34.013,-84.599,6.8,61.90301369863013,98.1,0.0,92.34,0.0,0.0,0.0
2386,722255,COLUMBUS METRO AIRPORT,GA,32.516,-84.942,12.9,65.92821917808219,102.0,0.0,52.79,0.0,0.0,0.0
1543,722154,DALTON MUNICIPAL AIRPORT,GA,34.722,-84.869,5.5,58.31142857142858,96.8,0.0,25197.480000000003,0.0,0.0,0.0
1551,722181,DANIEL FIELD AIRPORT,GA,33.467,-82.039,10.9,66.69479452054796,102.9,0.0,67.92,0.0,0.0,0.0
880,720268,DCATR CO INDUS AIRPK ARPT,GA,30.983,-84.633,16.7,67.39397260273972,104.7,0.0,5493.579999999999,0.0,0.0,0.0
1559,722196,DEKALB-PEACHTREE AIRPORT,GA,33.875,-84.302,7.0,61.78241758241758,100.0,0.0,112.39999999999999,0.0,0.0,0.0
949,722062,DOUGLAS MUNICIPAL AIRPORT,GA,31.477,-82.861,19.0,67.12829131652661,103.3,0.0,27597.239999999998,0.0,0.0,0.0
1519,720257,EARLY COUNTY AIRPORT,GA,31.397,-84.895,15.8,64.6482191780822,98.6,0.0,28797.119999999995,0.0,0.0,0.0
247,720951,EAST GEORGIA REGIONAL AIRPORT,GA,32.609,-82.37,15.8,65.86758241758241,104.0,0.0,14998.499999999998,0.0,0.0,0.0
1720,720263,ELBERT CO-PATZ FLD AIRPORT,GA,34.095,-82.816,7.7,62.4239263803681,96.3,0.0,1834.9,0.0,0.0,0.0
186,721033,FITZGERALD MUNICIPAL AIRPORT,GA,31.684,-83.27,17.4,66.72465753424656,104.9,0.0,5899.41,0.0,0.0,0.0
2019,722250,FORT BENNING,GA,32.333,-85.0,12.9,63.98269230769232,101.1,0.0,689.76,0.0,0.0,0.0
677,997301,FT PALASKI,GA,32.03,-80.9,21.6,68.09387186629526,93.2,0.0,0.0,0.0,0.0,0.0
1558,722195,FULTON CO-BROWN FLD ARPT,GA,33.779,-84.521,8.1,62.56520547945206,99.0,0.0,96.89999999999999,0.0,0.0,0.0
1524,720347,GREENE COUNTY REGIONAL AIRPOR,GA,33.598,-83.139,10.4,62.77470930232558,100.4,0.0,28197.179999999993,0.0,0.0,0.0
223,720966,GRIFFIN SPALDING COUNTY AIRPO,GA,33.227,-84.275,17.6,61.75694444444444,96.8,0.0,4199.579999999999,0.0,0.0,0.0
1686,747808,GWINNETT CO-BRISCOE FD APT,GA,33.98,-83.963,6.1,61.581095890410964,99.0,0.0,256.28000000000003,0.0,0.0,0.0
2339,722190,HARTSFIELD-JACKSON ATLANTA IN,GA,33.63,-84.442,8.1,64.03753424657533,99.0,0.0,52.510000000000005,0.0,0.0,0.0
184,721035,HAZLEHURST AIRPORT,GA,31.885,-82.647,17.6,65.96443148688046,102.0,0.0,11898.809999999998,0.0,0.0,0.0
225,720962,HEART OF GEORGIA REGIONAL AIR,GA,32.214,-83.128,14.0,64.44668508287292,100.4,0.0,26997.3,0.0,0.0,0.0
320,720712,HENRY TIFT MYERS AIRPORT,GA,31.429,-83.489,23.9,68.96614785992217,102.0,0.0,10998.9,0.0,0.0,0.0
562,720392,HOMERVILLE,GA,31.056,-82.774,18.5,67.06281690140847,102.7,0.0,25597.43999999999,0.0,0.0,0.0
1682,747804,HUNTER ARMY AIRFIELD,GA,32.017,-81.133,19.2,67.64033149171273,102.4,0.0,1496.62,0.0,0.0,0.0
234,749483,JACKSON COUNTY AIRPORT,GA,34.147,-83.561,20.1,61.67071823204421,99.1,0.0,3885.4399999999996,0.0,0.0,0.0
367,720671,JESUP WAYNE COUNTY AIRPORT,GA,31.554,-81.883,21.2,67.57961432506886,104.0,0.0,27997.199999999997,0.0,0.0,0.0
246,720948,JIMMY CARTER REGIONAL AIRPORT,GA,32.11,-84.189,13.6,65.14020270270271,104.0,0.0,11698.83,0.0,0.0,0.0
1685,747807,LAGRANGE-CALLAWAY AIRPORT,GA,33.017,-85.067,10.0,62.13291536050157,97.0,0.0,25397.459999999995,0.0,0.0,0.0
1554,722185,LEE GILMER MEMORIAL ARPT,GA,34.272,-83.83,5.0,61.93643835616439,98.1,0.0,97.08,0.0,0.0,0.0
2184,722137,MALCOLM MC KINNON AIRPORT,GA,31.152,-81.391,23.0,70.03774104683195,102.9,0.0,50.169999999999995,0.0,0.0,0.0
2021,722270,MARIETTA/DOBBINS AF,GA,33.917,-84.517,6.1,61.866027397260275,97.0,0.0,2294.34,0.0,0.0,0.0
2502,722170,MIDDLE GEORGIA REGIONAL AIRPO,GA,32.685,-83.653,12.9,65.19534246575341,105.1,0.0,50.010000000000005,0.0,0.0,0.0
31,720897,MONROE WALTON CO,GA,33.782,-83.693,7.3,58.07615894039734,94.8,0.0,1835.3399999999997,0.0,0.0,0.0
798,747810,MOODY AFB AIRPORT,GA,30.967,-83.2,18.9,67.46630136986302,103.3,0.0,899.8800000000001,0.0,0.0,0.0
1811,722147,MOULTRIE MUNICIPAL AIRPORT,GA,31.083,-83.8,26.6,66.79299719887955,100.4,0.0,28797.11999999999,0.0,0.0,0.0
1549,722176,NEWNAN COWETA COUNTY ARPT,GA,33.312,-84.77,16.2,62.935014005602234,97.0,0.0,27397.259999999995,0.0,0.0,0.0
354,720714,PAULDING NORTHWEST ATLANTA AI,GA,33.912,-84.941,5.0,60.03041095890412,95.0,0.0,15298.47,0.0,0.0,0.0
1560,722197,PCHTRE CTY-FALCON FLD ARPT,GA,33.355,-84.567,10.0,62.895616438356164,102.0,0.0,95.22,0.0,0.0,0.0
1522,720301,PLANTATION AIRPARK,GA,32.646,-81.596,16.2,64.1275,99.1,0.0,26597.339999999997,0.0,0.0,0.0
2018,722175,ROBINS AFB,GA,32.633,-83.6,13.1,65.05506849315067,103.5,0.0,872.36,0.0,1.0,1.0
1915,723200,ROME/RUSSELL(RAMOS)          ,GA,34.35,-85.167,9.0,62.47150684931507,100.0,0.0,122.12,0.0,0.0,0.0
672,998010,SAPELO ISLAND RESERVE,GA,31.417,-81.283,23.4,68.92066115702481,99.7,0.0,14.909999999999998,0.0,0.0,0.0
2385,722070,SAVANNAH/HILTON HEAD INTL AIR,GA,32.131,-81.202,19.0,67.00164383561643,102.0,0.0,38.800000000000004,1.0,0.0,3.0
1683,747805,STATESBORO-BULLOCK CO ARPT,GA,32.483,-81.737,15.6,65.02246575342465,101.5,0.0,30596.94,0.0,0.0,0.0
1684,747806,THOMASTON-UPSON CO AIRPORT,GA,32.955,-84.264,17.6,64.88164383561644,98.6,0.0,28197.18,0.0,0.0,0.0
346,720738,THOMASVILLE REGIONAL AIRPORT,GA,30.902,-83.881,19.4,65.8786301369863,100.4,0.0,15698.429999999998,0.0,0.0,0.0
1809,720289,THOMSON-MCDUFFIE CO ARPT,GA,33.53,-82.516,10.0,63.14328767123288,102.9,0.0,6425.659999999999,0.0,0.0,0.0
192,725258,TOCCOA RG LETOURNEAU FIELD AI,GA,34.594,-83.296,6.1,61.11825842696629,100.4,0.0,9419.219999999998,0.0,0.0,0.0
1903,722166,VALDOSTA RGNL,GA,30.783,-83.267,19.9,68.18328767123288,102.0,0.0,92.94000000000003,0.0,0.0,0.0
1539,722134,VIDALIA REGIONAL AIRPORT,GA,32.193,-82.372,19.4,67.18054794520549,104.0,0.0,27597.23999999999,0.0,0.0,0.0
1563,722217,W H `BUD` BARRON AIRPORT,GA,32.564,-82.985,17.6,65.77062146892655,104.0,0.0,27397.26,0.0,0.0,0.0
744,720294,WASHINGTON-WILKES CO ARPT,GA,33.78,-82.816,8.2,62.514794520547945,102.6,0.0,3492.2599999999993,0.0,0.0,0.0
1858,722130,WAYCROSS/WARE CO.            ,GA,31.25,-82.4,21.2,65.41986970684039,97.9,0.0,21197.879999999997,0.0,0.0,0.0
363,720674,WEST GEORGIA REGIONAL AIRPORT,GA,33.633,-85.15,5.4,58.80228571428571,93.2,0.0,13498.65,0.0,0.0,0.0
1687,747809,WINDER-BORROW AIRPORT,GA,33.983,-83.668,8.6,61.19424657534246,96.8,0.0,28797.119999999988,0.0,0.0,0.0
800,722090,WRIGHT AAF AIRPORT,GA,31.883,-81.567,18.7,66.58928571428571,102.7,0.0,1075.98,0.0,1.0,1.0
2486,911620,BARKING SANDS PACIFIC MISSILE,HI,22.033,-159.783,62.1,76.66969696969699,90.0,0.0,309.76,0.0,0.0,0.0
799,911977,BRADSHAW ARMY AIRFIELD,HI,19.76,-155.554,30.2,57.56805555555555,81.7,0.0,612.3,0.0,0.0,0.0
503,998191,HILO,HI,19.717,-155.05,62.1,73.58851540616247,85.8,0.0,0.0,0.0,0.0,0.0
2335,912850,HILO INTERNATIONAL AIRPORT,HI,19.719,-155.053,60.1,74.2882191780822,89.1,0.0,95.72,0.0,0.0,0.0
641,994007,HONOLULU,HI,21.3,-157.87,66.0,76.87821229050279,86.2,0.0,0.0,0.0,0.0,0.0
2516,911820,HONOLULU INTERNATIONAL AIRPOR,HI,21.324,-157.929,61.0,77.66383561643838,91.0,0.0,13.12,0.0,0.0,0.0
2334,911900,KAHULUI AIRPORT,HI,20.9,-156.429,46.0,77.64849315068491,96.1,0.0,6.809999999999999,0.0,0.0,0.0
1503,911780,KALAELOA AIRPORT (JOHN RODGER,HI,21.317,-158.067,61.0,78.00082191780821,93.9,0.0,34.01999999999999,0.0,0.0,0.0
2333,911760,KANEOHE MCAS,HI,21.45,-157.768,64.0,77.7190625,87.1,0.0,19.830000000000002,0.0,0.0,0.0
153,997173,KAWAIHAE,HI,20.037,-155.829,66.9,77.77430167597765,90.0,0.0,0.0,0.0,0.0,0.0
1506,911975,KONA INTL AT KEAHOLE ARPT,HI,19.736,-156.049,53.1,78.79808219178082,102.0,0.0,24.019999999999996,1.0,0.0,3.0
1505,911905,LANAI AIRPORT,HI,20.79,-156.949,55.9,71.32027397260273,86.0,0.0,27.840000000000003,0.0,0.0,0.0
2332,911650,LIHUE AIRPORT,HI,21.984,-159.341,60.1,75.47397260273974,87.1,0.0,29.509999999999998,1.0,0.0,3.0
506,998193,MOKUOLOE,HI,21.433,-157.783,66.0,76.7129476584022,86.5,0.0,0.0,0.0,0.0,0.0
1504,911860,MOLOKAI AIRPORT,HI,21.155,-157.096,54.0,75.41643835616439,91.9,0.0,30.779999999999994,0.0,0.0,0.0
660,997384,MOLUOLOE,HI,20.9,-156.47,61.9,75.57206703910614,84.6,0.0,0.0,0.0,0.0,0.0
504,998195,NAWILIWILI,HI,21.95,-159.35,59.9,75.06536312849163,83.5,0.0,0.0,0.0,0.0,0.0
1870,911700,WAHIAWA /WHEELER/SC,HI,21.483,-158.033,55.4,72.63150684931506,87.3,0.0,837.0999999999998,0.0,0.0,0.0
1276,725457,ALGONA MUNICIPAL AIRPORT,IA,43.078,-94.272,-18.4,46.15164835164835,96.8,0.0,0.0,0.0,0.0,0.0
1285,725472,AMES MUNICIPAL AIRPORT,IA,41.991,-93.619,-20.0,48.44203296703297,97.0,0.0,80.53999999999998,0.0,0.0,0.0
1281,725466,ANKENY REGIONAL AIRPORT,IA,41.691,-93.566,-13.0,49.494490358126725,100.4,0.0,26597.339999999993,0.0,0.0,0.0
1283,725468,ARTHUR N. NEU AIRPORT,IA,42.046,-94.789,-14.8,48.03684210526316,96.8,0.0,23397.66,0.0,0.0,0.0
1273,725453,ATLANTIC MUNICIPAL AIRPORT,IA,41.407,-95.047,-14.8,48.50340909090909,98.6,0.0,23597.639999999996,0.0,0.0,0.0
1303,725498,AUDUBON COUNTY AIRPORT,IA,41.7,-94.917,-14.8,48.20027777777777,96.8,0.0,19598.04,0.0,0.0,0.0
1294,725486,BOONE MUNICIPAL AIRPORT,IA,42.049,-93.848,-13.0,48.13406593406594,96.8,0.0,24197.58,0.0,0.0,0.0
412,722274,CENTERVILLE MUNICIPAL AIRPORT,IA,40.684,-92.901,-13.0,40.80843373493976,96.8,0.0,7499.249999999999,0.0,0.0,0.0
1284,725469,CHARITON MUNICIPAL AIRPORT,IA,41.019,-93.359,-13.0,49.885205479452054,95.0,0.0,28797.12,0.0,0.0,0.0
1279,725463,CHARLES CITY MUNICIPAL APT,IA,43.073,-92.611,-20.2,45.38301369863013,95.0,18.2,8642.859999999999,0.0,0.0,0.0
927,720344,CHEROKEE MUNICIPAL AIRPORT/  ,IA,42.732,-95.556,-17.0,46.78375350140056,97.7,0.0,10814.900000000001,0.0,0.0,0.0
1277,725458,CLARION MUNICIPAL AIRPORT,IA,42.742,-93.759,-20.2,45.88214285714286,96.8,0.0,0.0,0.0,0.0,0.0
1286,725473,CLINTON MUNICIPAL AIRPORT,IA,41.833,-90.333,-14.1,48.41263736263737,97.0,0.0,263.82000000000005,0.0,0.0,0.0
1302,725497,COUNCIL BLUFFS MUNI ARPT,IA,41.259,-95.76,-14.8,50.87305555555555,96.8,0.0,23197.68,0.0,0.0,0.0
1287,725474,CRESTON MUNICIPAL AIRPORT,IA,41.007,-94.363,-13.0,48.82773109243697,96.8,0.0,22197.780000000002,0.0,0.0,0.0
2097,744550,DAVENPORT MUNICIPAL AIRPT,IA,41.614,-90.591,-9.4,49.745479452054795,97.0,127.1,33.29,0.0,0.0,0.0
1289,725476,DECORAH MUNICIPAL AIRPORT,IA,43.275,-91.739,-18.4,44.88130311614731,95.0,0.0,7251.74,0.0,0.0,0.0
1290,725477,DENISON MUNICIPAL AIRPORT,IA,41.986,-95.381,-14.8,49.00174927113703,98.6,0.0,22197.78,0.0,0.0,0.0
2272,725460,DES MOINES INTERNATIONAL AIRP,IA,41.534,-93.653,-11.0,50.337362637362645,99.0,251.0,33.67,1.0,3.0,6.0
2274,725470,DUBUQUE REGIONAL AIRPORT,IA,42.398,-90.704,-18.0,47.2786301369863,96.1,231.50000000000003,33.15,0.0,0.0,0.0
1365,726499,ESTHERVILLE MUNI AIRPORT,IA,43.401,-94.747,-20.0,45.591232876712326,98.1,0.0,45.699999999999996,0.0,0.0,0.0
1364,726498,FAIRFIELD MUNICIPAL ARPT,IA,41.053,-91.979,-11.2,49.89917582417583,96.8,0.0,0.0,0.0,0.0,0.0
404,720643,FOREST CITY MUNICIPAL AIRPORT,IA,43.235,-93.624,-22.0,44.36077348066299,95.0,0.0,28197.179999999993,0.0,0.0,0.0
1297,725490,FORT DODGE REGIONAL APRT,IA,42.55,-94.183,-20.0,47.30192837465565,96.1,0.0,44.760000000000005,0.0,0.0,0.0
796,725483,FORT MADISON MUNICIPAL APT,IA,40.659,-91.327,-9.4,56.29864864864866,98.6,0.0,20797.92,0.0,0.0,0.0
764,725292,GRINNELL REGIONAL AIRPORT,IA,41.709,-92.735,-10.3,50.74494382022473,98.8,0.0,5017.44,0.0,0.0,0.0
963,722097,HARLAN MUNICIPAL AIRPORT,IA,41.584,-95.339,-16.6,48.41049723756906,100.4,0.0,0.0,0.0,0.0,0.0
897,720293,INDEPENDENCE MUNICIPAL APT,IA,42.453,-91.948,-16.4,46.42349570200574,95.7,0.0,18635.6,0.0,0.0,0.0
1962,725462,IOWA CITY MUNI,IA,41.639,-91.547,-9.4,50.0586301369863,98.1,0.0,56.48000000000001,0.0,0.0,0.0
573,722331,IOWA FALLS MUNI,IA,42.467,-93.267,-16.2,47.28602739726027,95.7,0.0,11839.26,0.0,0.0,0.0
1275,725456,KEOKUK MUNICIPAL AIRPORT,IA,40.46,-91.428,-9.4,51.59146005509642,96.8,0.0,0.0,0.0,0.0,0.0
1298,725493,KNOXVILLE MUNICIPAL ARPT,IA,41.299,-93.114,-9.4,51.03463687150838,96.8,0.0,25797.42,0.0,0.0,0.0
1304,725499,LAMONI MUNICIPAL AIRPORT,IA,40.631,-93.901,-11.0,51.18739726027397,97.0,0.0,63.559999999999995,0.0,0.0,0.0
1293,725484,LE MARS MUNICIPAL AIRPORT,IA,42.778,-96.194,-16.6,46.241420118343186,107.6,0.0,27597.239999999998,0.0,0.0,0.0
1278,725461,MARSHALLTOWN MUNICIPAL APT,IA,42.111,-92.916,-18.0,47.3728021978022,96.1,0.0,49.879999999999995,0.0,0.0,0.0
2275,725485,MASON CITY MUNICIPAL ARPT,IA,43.154,-93.327,-22.0,44.57041095890411,95.0,353.4,28.700000000000003,0.0,0.0,0.0
1288,725475,MONTICELLO REGIONAL ARPT,IA,42.224,-91.166,-18.4,33.56285714285713,96.8,0.0,11998.799999999997,0.0,0.0,0.0
907,720309,MOUNT PLEASANT MUNI ARPT,IA,40.947,-91.511,-7.6,51.679166666666674,98.6,0.0,29397.059999999994,0.0,0.0,0.0
1295,725487,MUSCATINE MUNICIPIAL ARPT,IA,41.367,-91.15,-7.6,50.712912087912095,100.4,0.0,27797.21999999999,0.0,0.0,0.0
1280,725464,NEWTON MUNICIPAL AIRPORT,IA,41.674,-93.022,-14.8,48.91785714285713,96.8,0.0,0.0,0.0,0.0,0.0
1296,725488,OELWEIN MUNICIPAL AIRPORT,IA,42.681,-91.974,-20.2,45.67863013698631,96.8,0.0,52.25999999999999,0.0,0.0,0.0
361,720701,OSCEOLA MUNICIPAL AIRPORT,IA,41.052,-93.689,-11.4,50.81318681318681,98.2,0.0,10039.619999999999,0.0,0.0,0.0
929,720351,OSKALOOSA MUNICIPAL AIRPORT,IA,41.226,-92.491,-8.5,51.71236263736264,100.8,0.0,8030.9,0.0,0.0,0.0
2273,725465,OTTUMWA INDUSTRIAL AIRPORT,IA,41.108,-92.447,-11.0,50.088493150684926,97.0,0.0,25.74,0.0,0.0,0.0
909,720312,PELLA MUNICIPAL AIRPORT,IA,41.4,-92.946,-13.9,49.631232876712325,98.2,0.0,10046.96,0.0,0.0,0.0
457,720412,PERRY MUNICIPAL AIRPORT,IA,41.828,-94.16,-13.0,46.80032051282051,102.4,0.0,7837.099999999998,0.0,0.0,0.0
1299,725494,RED OAK MUNICIPAL AIRPORT,IA,41.01,-95.26,-11.2,50.6393351800554,98.6,0.0,20597.94,0.0,0.0,0.0
1292,725479,SCHENCK FIELD AIRPORT,IA,40.722,-95.026,-11.2,50.231680440771356,98.6,0.0,20197.979999999996,0.0,0.0,0.0
1778,725420,SE IOWA REGIONAL AIRPORT,IA,40.783,-91.125,-9.9,50.864657534246575,97.0,0.0,126.10000000000002,0.0,0.0,0.0
1300,725495,SHELDON MUNICIPAL AIRPORT,IA,43.208,-95.833,-18.4,45.612912087912086,98.6,0.0,27397.259999999995,0.0,0.0,0.0
1282,725467,SHENANDOAH MUNICIPAL ARPT,IA,40.751,-95.413,-11.2,51.25631868131868,98.6,0.0,21797.82,0.0,0.0,0.0
2467,725570,SIOUX GATEWAY/COL BUD DAY FIE,IA,42.391,-96.379,-16.6,49.460497237569065,102.0,47.699999999999996,15.370000000000001,0.0,0.0,0.0
1366,726500,SPENCER MUNICIPAL AIRPORT,IA,43.164,-95.202,-18.0,47.158904109589045,100.9,414.0,242.83999999999992,0.0,0.0,0.0
1301,725496,STORM LAKE MUNICIPAL ARPT,IA,42.597,-95.241,-18.4,46.53134328358208,96.8,0.0,25397.459999999995,0.0,0.0,0.0
2271,725450,THE EASTERN IOWA AIRPORT,IA,41.883,-91.717,-15.0,47.53205479452055,96.1,0.0,28.16,0.0,0.0,0.0
921,720326,VINTON VETERANS MEMORIAL AIRP,IA,42.219,-92.026,-16.6,49.48876712328767,100.8,0.0,24008.539999999997,0.0,0.0,0.0
1274,725454,WASHINGTON MUNICIPAL ARPT,IA,41.276,-91.673,-11.2,49.6767955801105,98.6,0.0,26997.299999999992,0.0,0.0,0.0
2373,725480,WATERLOO MUNICIPAL AIRPORT,IA,42.554,-92.401,-18.4,47.92767123287671,97.0,276.40000000000003,35.19,0.0,0.0,0.0
1291,725478,WEBSTER CITY MUNI AIRPORT,IA,42.436,-93.869,-18.4,46.78429752066115,96.8,0.0,29397.059999999994,0.0,0.0,0.0
2521,726810,BOISE AIR TERMINAL/GOWEN FD A,ID,43.567,-116.241,-2.9,52.5786301369863,106.0,80.00000000000001,11.08,0.0,0.0,0.0
278,720923,BOUNDARY COUNTY AIRPORT,ID,48.726,-116.295,-22.0,44.09,96.8,0.0,13198.679999999998,0.0,0.0,0.0
2283,725867,BURLEY MUNICIPAL AIRPORT,ID,42.542,-113.766,-5.1,47.25780821917808,100.9,0.0,5.510000000000001,0.0,0.0,0.0
1413,726813,CALDWELL INDUSTRIAL ARPT,ID,43.65,-116.633,-4.0,51.767096774193554,105.1,0.0,412.31999999999994,0.0,0.0,0.0
1740,722142,CHALLIS AIRPORT,ID,44.523,-114.215,-11.9,43.56027397260274,99.0,0.0,13.580000000000002,0.0,0.0,0.0
1461,727834,COEUR D'ALENE AIR TERM APT,ID,47.767,-116.817,-9.0,47.4509589041096,100.9,0.0,25000.1,0.0,0.0,0.0
747,720369,DRIGGS-REED MEMORIAL AIRPORT,ID,43.743,-111.098,-24.0,39.2804469273743,91.9,0.0,214.33,0.0,0.0,0.0
1330,725784,ELK CITY,ID,46.144,-115.596,3.0,48.07692307692308,108.0,0.0,72.98,0.0,0.0,0.0
1332,725865,FRIEDMAN MEMORIAL AIRPORT,ID,43.5,-114.3,-7.6,42.989315068493156,93.2,0.0,17398.259999999995,0.0,0.0,0.0
262,726873,IDAHO COUNTY AIRPORT,ID,45.943,-116.123,-7.6,45.3345205479452,98.6,0.0,0.0,0.0,0.0,0.0
2280,725785,IDAHO FALLS REGIONAL ARPT,ID,43.519,-112.064,-16.1,44.31972602739726,100.0,0.0,7.830000000000001,0.0,0.0,0.0
1414,726816,JEROME COUNTY AIRPORT,ID,42.727,-114.456,-2.9,48.66164383561643,102.0,0.0,13.540000000000003,0.0,0.0,0.0
1333,725866,JSIN FLD-MAGIC VLY RGN APT,ID,42.482,-114.487,-4.0,48.81318681318682,102.0,0.0,14.440000000000001,0.0,0.0,0.0
1416,726865,LEMHI COUNTY AIRPORT,ID,45.117,-113.883,-15.0,42.54834254143646,97.0,0.0,812.5599999999998,0.0,0.0,0.0
2325,727830,LEWISTON-NEZ PERCE COUNTY AIR,ID,46.375,-117.016,-0.9,53.401095890410964,108.0,78.60000000000001,15.93,0.0,0.0,0.0
1781,725864,MCCALL MUNICIPAL AIRPORT,ID,44.889,-116.102,-16.1,42.10219178082191,97.0,0.0,23.01,0.0,0.0,0.0
2047,726815,MOUNTAIN HOME AFB,ID,43.05,-115.867,2.3,50.27890410958903,104.0,21.4,9.0,0.0,0.0,0.0
1980,726817,MULLAN PASS VOR,ID,47.45,-115.667,-20.9,38.03671232876713,86.0,0.0,91.76,0.0,0.0,0.0
351,720734,NAMPA MUNICIPAL AIRPORT,ID,43.581,-116.523,-4.0,51.84723756906077,104.0,0.0,0.0,0.0,0.0,0.0
2457,725780,POCATELLO REGIONAL AIRPORT,ID,42.92,-112.571,-11.0,46.264835164835176,100.9,206.99999999999997,13.200000000000001,0.0,0.0,0.0
2084,726818,REXBURG-MADISON COUNTY APT,ID,43.832,-111.808,-13.0,44.40630136986301,99.0,0.0,9.090000000000002,0.0,0.0,0.0
918,720322,SANDPOINT AIRPORT,ID,48.299,-116.56,-7.6,45.130578512396696,96.8,0.0,34596.539999999986,0.0,0.0,0.0
2085,726824,STANLEY RANGER STATION,ID,44.171,-114.927,-29.0,35.606197183098594,91.9,0.0,21.0,0.0,0.0,0.0
2354,724390,ABRAHAM LINCOLN CAPITAL AIRPO,IL,39.845,-89.684,-8.0,53.312876712328766,97.0,99.39999999999999,342.12,0.0,0.0,0.0
1532,722082,ALBERTUS AIRPORT,IL,42.246,-89.582,-17.1,48.1745205479452,96.3,0.0,8251.359999999999,0.0,0.0,0.0
1673,744655,AURORA MUNICIPAL AIRPORT,IL,41.77,-88.481,-22.0,48.75616438356165,97.0,0.0,71.64,0.0,0.0,0.0
1215,724975,CAIRO REGIONAL AIRPORT,IL,37.064,-89.219,-3.1,58.626557377049195,100.0,0.0,31.079999999999995,0.0,0.0,0.0
954,722074,CARMI MINICIPAL AIRPORT,IL,38.089,-88.123,-4.0,56.437845303867405,98.6,0.0,27797.219999999998,0.0,0.0,0.0
1602,724397,CENTRAL ILLINOIS REGIONAL AIR,IL,40.483,-88.95,-11.0,51.06958904109589,96.1,0.0,255.8200000000001,0.0,0.0,0.0
1481,744657,CENTRALIA MUNICIPAL ARPT,IL,38.515,-89.092,4.3,58.638698630136986,98.2,0.0,6446.959999999999,0.0,0.0,0.0
587,997338,CHICAGO,IL,42.0,-87.5,-7.2,49.62630057803467,96.6,0.0,0.0,0.0,0.0,0.0
2361,725340,CHICAGO MIDWAY INTL ARPT,IL,41.786,-87.752,-9.0,53.50493150684932,100.9,144.3,30.929999999999996,0.0,0.0,0.0
2406,725300,CHICAGO O'HARE INTERNATIONAL,IL,41.96,-87.932,-8.0,51.412602739726026,99.0,141.70000000000002,32.529999999999994,0.0,2.0,2.0
1620,725317,COLES COUNTY MEMO AIRPORT,IL,39.478,-88.28,-9.0,53.64821917808219,98.1,0.0,70.97999999999999,0.0,0.0,0.0
1531,722075,DE KALB TAYLOR MUNI ARPT,IL,41.932,-88.708,-15.2,48.141712707182315,95.5,0.0,10058.759999999998,0.0,0.0,0.0
1619,725316,DECATUR AIRPORT,IL,39.834,-88.866,-9.0,53.21726027397259,98.1,0.0,89.78,0.0,0.0,0.0
1617,725305,DUPAGE AIRPORT,IL,41.914,-88.246,-16.1,49.85890410958904,98.1,0.0,66.38,0.0,1.0,1.0
988,722172,EDGAR COUNTY AIRPORT,IL,39.7,-87.669,-8.9,52.100273972602736,96.3,0.0,11246.08,0.0,0.0,0.0
1480,744656,FAIRFIELD MUNICIPAL ARPT,IL,38.379,-88.413,-5.4,55.42093663911846,97.7,0.0,7472.5999999999985,0.0,0.0,0.0
1482,744658,FLORA MUNICIPAL AIRPORT,IL,38.665,-88.453,-7.6,54.61123287671233,98.6,0.0,30196.979999999992,0.0,0.0,0.0
1533,722089,GALESBURG MUNICIPAL ARPT,IL,40.933,-90.433,-12.5,49.34767123287671,95.0,0.0,9649.8,0.0,0.0,0.0
1538,722127,GREATER KANKAKEE AIRPORT,IL,41.071,-87.846,-9.4,50.39615384615385,98.6,0.0,26211.74,0.0,0.0,0.0
2360,725320,GREATER PEORIA REGIONAL AIRPO,IL,40.668,-89.684,-9.0,52.36219178082192,98.1,160.7,29.240000000000002,0.0,0.0,0.0
2363,725430,GREATER ROCKFORD AIRPORT,IL,42.193,-89.093,-18.0,49.50794520547945,100.0,133.39999999999998,40.04,0.0,2.0,2.0
1478,744652,HARRISBURG-RALEIGH AIRPORT,IL,37.811,-88.549,-5.8,54.49223880597015,97.9,0.0,10844.82,0.0,0.0,0.0
1542,722149,ILLINOIS VALLEY RGNL-WALTER D,IL,41.352,-89.153,-8.1,50.61561643835616,95.9,0.0,24410.920000000002,0.0,0.0,0.0
1677,744666,JACKSONVILLE MUNICIPAL AIRPOR,IL,39.78,-90.238,-9.9,51.654341736694676,96.3,0.0,4645.379999999999,0.0,0.0,0.0
1841,725345,JOLIET REGIONAL AIRPORT,IL,41.5,-88.167,-16.4,51.624931506849315,98.4,0.0,10453.259999999998,0.0,0.0,0.0
1537,722126,LANSING MUNICIPAL AP,IL,41.54,-87.532,-11.2,50.07119113573407,97.2,0.0,15243.02,0.0,0.0,0.0
1625,725348,LEWIS UNIVERSITY AIRPORT,IL,41.604,-88.085,-9.4,51.433762057877814,98.2,116.80000000000001,60.9,0.0,0.0,0.0
1574,722972,LITCHFIELD MUNICIPAL AIRPORT,IL,39.163,-89.675,-8.5,52.55232876712329,97.0,0.0,6869.620000000001,0.0,0.0,0.0
1678,744672,LOGAN COUNTY AIRPORT,IL,40.158,-89.335,-8.1,57.1751592356688,98.4,0.0,13434.599999999999,0.0,0.0,0.0
1256,725342,LRNCVLL-VINCNES INTL ARPT,IL,38.764,-87.606,-6.0,56.215624999999996,98.1,0.0,470.26,0.0,0.0,0.0
984,722157,MACOMB MUNICIPAL AIRPORT,IL,40.52,-90.652,-7.6,50.89911764705883,96.1,0.0,9643.68,0.0,0.0,0.0
1693,A00017,MARSHALL COUNTY AIRPORT,IL,41.019,-89.386,-9.6,49.876536312849154,95.0,0.0,13798.62,0.0,0.0,0.0
872,720170,METROPOLIS MUNICIPAL AIRPORT,IL,37.186,-88.751,-3.6,57.60328767123287,98.6,0.0,5863.099999999999,0.0,0.0,0.0
1518,720137,MORS MUNI-J.R. WSBRN FD AP,IL,41.425,-88.419,-14.8,49.966391184573006,98.6,0.0,11049.62,0.0,0.0,0.0
924,720330,MOUNT CARMEL MUNICIPAL AIRPOR,IL,38.607,-87.727,-4.0,56.79141274238227,100.8,0.0,9451.48,0.0,0.0,0.0
1169,724335,MOUNT VERNON AIRPORT,IL,38.323,-88.858,-7.6,54.436857142857136,98.1,0.0,1066.7999999999997,0.0,0.0,0.0
188,998499,NORTHERLY ISLAND,IL,41.856,-87.609,-8.0,51.23222222222222,97.0,0.0,0.0,0.0,0.0,0.0
1483,744659,OLNEY-NOBLE AIRPORT,IL,38.722,-88.176,3.2,52.97148936170212,97.0,0.0,6447.66,0.0,0.0,0.0
1676,744665,PALWAUKEE MUNICIPAL ARPT,IL,42.121,-87.905,-8.0,51.38602739726027,99.0,0.0,66.01999999999998,0.0,0.0,0.0
1675,744663,PITTSFIELD-PENSTON MUNI AP,IL,39.639,-90.778,-8.5,53.59863013698631,98.4,0.0,660.1800000000001,0.0,0.0,0.0
1548,722171,PONTIAC MUNICIPAL AIRPORT,IL,40.924,-88.624,-8.7,49.9883852691218,97.2,0.0,12636.8,0.0,0.0,0.0
2270,725440,QUAD CITY INTERNATIONAL AIRPO,IL,41.465,-90.523,-11.0,51.3358904109589,98.1,0.0,32.58,0.0,0.0,0.0
1771,724430,QUINCY RGNL-BLDWN FLD ARPT,IL,39.937,-91.192,-9.9,53.025000000000006,99.0,0.0,32.58,0.0,0.0,0.0
1557,722194,RANTOUL NATL AVN CNTR-F ELLIO,IL,40.293,-88.142,-9.6,51.06931506849315,98.4,0.0,16634.239999999998,0.0,0.0,0.0
915,720319,ROBINSON MUNICIPAL AIRPORT,IL,39.016,-87.65,-7.8,52.12556818181818,97.5,0.0,7660.280000000001,0.0,0.0,0.0
1552,722182,ROCHELLE MUNI ARPT-KORITZ FIE,IL,41.893,-89.078,-22.9,47.80520547945205,96.8,0.0,15035.939999999999,0.0,0.0,0.0
1168,724330,SALEM-LECKRONE AIRPORT,IL,38.65,-88.967,3.0,59.35165562913908,97.9,0.0,9252.400000000001,0.0,0.0,0.0
2036,724338,SCOTT AFB MIDAMERIC,IL,38.533,-89.833,-6.3,55.844109589041096,100.6,95.6,1067.68,0.0,0.0,0.0
1170,724336,SOUTHERN ILLINOIS AIRPORT,IL,37.78,-89.25,-5.8,56.41835616438356,99.0,0.0,669.68,0.0,0.0,0.0
1479,744653,SPARTA COMMUNITY-HUNTER FIELD,IL,38.149,-89.699,-5.8,55.60575342465754,98.2,0.0,7260.239999999999,0.0,0.0,0.0
1253,725314,ST LOUIS DOWNTOWN AIRPORT,IL,38.571,-90.157,-5.8,56.05424657534247,100.9,0.0,105.74000000000001,0.0,0.0,0.0
1601,724395,ST LOUIS REGIONAL AIRPORT,IL,38.883,-90.05,-5.8,54.685753424657534,98.6,0.0,14621.52,0.0,0.0,0.0
1674,744662,TAYLORVILLE MINICIPAL ARPT,IL,39.534,-89.328,-8.7,52.64054794520548,96.1,0.0,19047.64,0.0,0.0,0.0
1000,722204,TRI-TOWNSHIP AIRPORT,IL,42.046,-90.108,-18.4,47.89813664596273,96.8,0.0,25997.39999999999,0.0,0.0,0.0
1618,725315,UNIVERSI OF IL WILLARD APT,IL,40.04,-88.278,-9.4,52.5109589041096,100.0,0.0,262.13999999999993,0.0,0.0,0.0
955,722076,VERMILION COUNTY AIRPORT,IL,40.2,-87.6,-8.7,52.50344827586207,98.4,0.0,7665.06,0.0,0.0,0.0
596,997735,WAUKEGAN HARBOR,IL,42.35,-87.82,-9.2,46.541358024691355,97.0,0.0,0.0,0.0,0.0,0.0
1624,725347,WAUKEGAN REGIONAL AIRPORT,IL,42.417,-87.867,-9.9,49.06,98.1,0.0,69.46000000000001,0.0,0.0,0.0
1621,725326,WHITESIDE CO ARPT-JOS H BITTO,IL,41.743,-89.676,-15.0,49.33370473537604,97.0,0.0,1255.0199999999995,0.0,0.0,0.0
1171,724339,WILLIAMSON COUNTY RGNL APT,IL,37.75,-89.0,-6.0,56.36931506849315,98.6,0.0,13234.759999999998,0.0,0.0,0.0
1176,724385,ANRSN MUNI DRNGTON FLD AP,IN,40.117,-85.617,-9.9,50.85424657534246,97.0,0.0,8841.52,0.0,0.0,0.0
602,997787,BURNS HARBOR,IN,41.65,-87.15,-3.1,51.31863013698629,94.5,0.0,0.0,0.0,0.0,0.0
1887,724363,COLUMBUS MUNI,IN,39.25,-85.883,-7.6,55.27616438356165,98.6,0.0,19598.039999999994,0.0,0.0,0.0
114,720903,DAVIESS COUNTY AIRPORT,IN,38.7,-87.13,-6.7,55.02486187845303,97.5,0.0,7608.410000000001,0.0,0.0,0.0
464,720543,DE KALB COUNTY AIRPORT,IN,41.3,-85.067,-7.6,49.45462184873951,95.0,0.0,37796.21999999999,0.0,0.0,0.0
1255,725336,DELAWARE CO-JOHNSON FD APT,IN,40.234,-85.394,-8.0,54.107671232876704,97.0,0.0,60.579999999999984,0.0,0.0,0.0
1175,724384,EAGLE CREEK AIRPARK ARPT,IN,39.825,-86.296,-8.0,54.39095890410959,100.0,0.0,73.30000000000001,0.0,0.0,0.0
805,725354,ELKHART MUNICIPAL AIRPORT,IN,41.717,-85.983,-8.3,51.16610169491525,96.8,0.0,31796.819999999992,0.0,0.0,0.0
2235,724320,EVANSVILLE REGIONAL AIRPORT,IN,38.044,-87.521,-6.0,57.077260273972605,100.9,18.4,146.18,0.0,0.0,0.0
2500,725330,FORT WAYNE INTERNATIONAL AIRP,IN,40.971,-85.206,-9.0,51.096428571428575,96.1,96.69999999999999,34.98,0.0,0.0,0.0
347,720736,FULTON COUNTY AIRPORT,IN,41.066,-86.182,-9.4,50.810256410256414,95.0,0.0,18698.129999999997,0.0,0.0,0.0
1623,725337,GARY/CHICAGO AIRPORT,IN,41.617,-87.417,-8.1,50.77817679558011,96.8,0.0,30805.199999999997,0.0,0.0,0.0
1934,724388,GOSHEN MUNI,IN,41.533,-85.8,-8.0,50.284890109890114,93.9,0.0,57.68,0.0,0.0,0.0
1254,725335,GRISSOM AFB AIRPORT,IN,40.65,-86.15,-10.3,51.30164383561643,97.5,162.6,2460.6,0.0,0.0,0.0
1173,724365,HUNTINGBURG AIRPORT,IN,38.249,-86.954,-7.6,55.966849315068494,98.1,0.0,83.67999999999998,0.0,0.0,0.0
101,720575,INDIANAPOLIS EXECUTIVE AIRPOR,IN,40.031,-86.251,-10.3,51.11561643835618,97.2,0.0,9869.84,0.0,0.0,0.0
2462,724380,INDIANAPOLIS INTERNATIONAL AI,IN,39.725,-86.282,-9.4,53.93315068493151,99.0,59.4,38.30999999999999,0.0,0.0,0.0
254,744660,JASPER COUNTY AIRPORT,IN,40.948,-87.183,-14.8,49.30552325581395,95.0,0.0,15098.489999999998,0.0,0.0,0.0
1177,724387,KOKOMO MUNICIPAL AIRPORT,IN,40.528,-86.059,-9.4,51.859668508287285,97.0,0.0,15612.319999999998,0.0,0.0,0.0
203,721029,LA PORTE MUNICIPAL AIRPORT,IN,41.572,-86.735,-9.4,49.07397260273972,97.3,0.0,7020.879999999998,0.0,0.0,0.0
226,720961,LOGANSPORT CASS COUNTY AIRPOR,IN,40.711,-86.375,-11.2,49.15564971751412,95.0,0.0,16498.35,0.0,0.0,0.0
365,744214,MARION MUNICIPAL AP,IN,40.483,-85.683,-11.7,50.701648351648345,94.1,0.0,20810.940000000002,0.0,0.0,0.0
533,997339,MICHIGAN CITY,IN,41.73,-86.93,-2.4,51.085205479452064,94.1,0.0,0.0,0.0,0.0,0.0
214,726358,MICHIGAN CITY MUNICIPAL AIRPO,IN,41.703,-86.821,-4.0,49.777840909090905,93.2,0.0,35796.41999999999,0.0,0.0,0.0
1174,724375,MONROE COUNTY AIRPORT,IN,39.133,-86.617,-9.0,54.505555555555546,97.0,0.0,82.16,0.0,0.0,0.0
1622,725327,PORTER COUNTY MUNICIPAL AIRPO,IN,41.453,-87.006,-9.4,50.19726027397261,98.1,0.0,447.6199999999999,0.0,0.0,0.0
2236,724386,PURDUE UNIVERSITY AIRPORT,IN,40.412,-86.937,-9.0,52.14520547945206,100.0,0.0,25.0,0.0,0.0,0.0
1172,724356,SHELBYVILLE MINUCIPAL ARPT,IN,39.578,-85.803,-7.1,55.503013698630134,100.0,0.0,284.46000000000004,0.0,0.0,0.0
2265,725350,SOUTH BEND REGIONAL AIRPORT,IN,41.707,-86.316,-8.0,50.90602739726028,99.0,285.00000000000006,36.53,0.0,0.0,0.0
469,720593,STARKE COUNTY AIRPORT,IN,41.333,-86.667,-9.4,47.35242424242424,96.8,0.0,0.0,0.0,0.0,0.0
1770,724373,TER HUTE INTL-HULMAN FD AP,IN,39.452,-87.309,-7.6,54.22931506849315,100.9,0.0,116.96999999999997,0.0,0.0,0.0
878,720266,WARSAW MUNICIPAL AIRPORT,IN,41.275,-85.84,-9.4,46.355448717948725,95.0,0.0,32596.739999999987,0.0,0.0,0.0
366,720436,ATKINSON MUNICIPAL AIRPORT,KS,37.45,-94.733,-6.0,57.48607242339833,104.2,0.0,1725.55,0.0,0.0,0.0
5,720421,ATWOOD-RAWLNS CO CTY CO AP,KS,39.84,-101.042,-14.4,52.0875,109.4,0.0,8799.119999999999,0.0,0.0,0.0
2241,724580,BLOSSER MUNICIPAL AIRPORT,KS,39.551,-97.651,-9.0,55.60796703296704,105.1,0.0,121.77,0.0,0.0,0.0
2239,724507,CHANUTE MARTIN JOHNSON APT,KS,37.67,-95.484,-2.9,59.14162011173184,107.1,0.0,30.069999999999997,0.0,0.0,0.0
199,720437,CHEYENNE COUNTY MUNICIPAL AIR,KS,39.767,-101.8,-16.1,52.04677871148459,110.1,0.0,0.0,0.0,0.0,0.0
1709,722005,COFFEY CO,KS,38.302,-95.725,-6.2,54.41569230769231,99.5,0.0,6412.609999999998,0.0,0.0,0.0
1187,724519,COFFEYVILLE MUNICIPAL ARPT,KS,37.091,-95.566,-2.9,59.82478873239436,108.0,0.0,55.87999999999999,0.0,0.0,0.0
1181,724504,COLONEL JAMES JABARA ARPT,KS,37.746,-97.221,-6.0,58.02049861495845,105.1,0.0,54.16,0.0,0.0,0.0
