,usaf,name,state,lat,lon,min_temp,mean_temp,max_temp,total_snow,total_precipitation,tornado_funnel_cloud,hail
0,720511,BRITTON MUNI,SD,45.815,-97.743,-23.8,41.98805555555556,98.6,,18198.179999999993,,
1,723062,PINEY ISLAND,NC,35.02,-76.46,25.0,69.1316091954023,99.0,,4645.98,,
2,A00030,CONNELLSVILLE AIRPORT,PA,39.959,-79.657,-2.6,53.63822629969419,91.8,,17498.25,,
3,720844,SPANISH PEAKS,CO,37.697,-104.785,-14.3,54.0058495821727,100.4,,0.0,,
4,724916,MARINA MUNI,CA,36.682,-121.762,-11.2,42.30574712643679,80.6,,10798.92,,
5,720421,ATWOOD-RAWLNS CO CTY CO AP,KS,39.84,-101.042,-14.4,52.08749999999999,109.4,,8799.119999999997,,
6,720837,JOSEPH STATE,OR,45.36,-117.254,-15.5,43.49478021978022,100.4,,7908.92,,
7,725244,WILLOUGHBY,OH,41.683,-81.4,-6.0,50.73616438356165,91.4,,47.199999999999996,,
8,720708,RANGE B,MS,32.8,-88.833,9.0,66.18277945619336,100.9,,1141.81,,
9,722349,PICAYUNE MUNI,MS,30.487,-89.651,21.2,70.21475409836067,100.4,,9999.0,,
10,720457,WENDELL H FORD ARPT,KY,37.387,-83.262,-2.2,56.29849849849849,95.0,,14998.5,,
11,720481,MALDEN FAA AIRPORT,MO,36.6,-89.983,-0.4,56.74172413793102,100.4,,17798.22,,
12,720687,HEMET RYAN,CA,33.733,-117.017,23.9,63.97479452054794,111.4,,1106.12,,
13,999999,ALEKNAGIK 1 NNE              ,AK,59.284,-158.615,-57.1,52.81663803778981,122.4,,490294229.52731836,,
14,720806,PANOLA CO SHARPE FLD,TX,32.176,-94.299,9.3,65.36298342541438,101.8,,3135.46,,
15,720255,MIAMI MUNI,OK,36.909,-94.888,-4.0,60.95091575091575,105.8,,7699.229999999999,,
16,720705,JAMES A RHODES,OH,38.981,-82.578,-0.4,52.460227272727266,93.2,,16298.369999999995,,
17,720438,SCOTT CITY MUNI,KS,38.474,-100.885,-16.6,53.64453781512604,109.6,,3304.9099999999994,,
18,720434,OAKLEY MUNI,KS,39.11,-100.816,-13.9,52.358260869565214,109.6,,0.0,,
19,720759,RAVALLI CO,MT,46.251,-114.125,-23.8,44.55798319327731,96.8,,13598.639999999998,,
20,720433,NORTON MUNI,KS,39.85,-99.895,-9.4,52.87016574585635,107.6,,9099.089999999997,,
21,720445,CAMPBELLVILLE / TAYLOR CO,KY,37.358,-85.309,1.4,55.5005633802817,96.8,,0.0,,
22,720781,LYONS RICE CO MUNI,KS,38.343,-98.227,-3.8,58.08378378378378,106.3,,4015.3399999999992,,
23,725203,MIFFLIN CO,PA,40.677,-77.627,-4.0,51.50958904109589,96.8,,22197.780000000002,,
24,720439,ULYSSES,KS,37.604,-101.374,-7.6,55.32,107.6,,8599.14,,
25,747960,AVON PARK GUNNERY RANGE,FL,27.65,-81.33,27.3,72.68798882681564,97.7,,1068.5399999999997,,
26,720775,ELLINGTON,TN,35.507,-86.804,5.0,58.61578947368421,96.8,,0.0,,
27,720329,CABLE,CA,34.112,-117.688,35.6,66.1482093663912,105.8,,2599.74,,
28,720446,SAMUELS FLD / BARDSTOWN,KY,37.814,-85.5,-0.2,55.338950276243104,96.8,,4099.589999999999,,
29,720482,OMAR N BRADLEY,MO,39.464,-92.427,-5.8,54.16675900277008,98.6,,12398.760000000002,,
30,720487,WARSAW MUNI,MO,38.347,-93.345,-7.6,51.87906249999999,99.9,,4223.49,,
31,720897,MONROE WALTON CO,GA,33.782,-83.693,7.3,58.07615894039735,94.8,,1835.34,,
32,720536,GRANBY GRAND CO,CO,40.09,-105.917,-22.2,36.083746556473834,86.0,,19798.019999999997,,
33,720477,FLOYD W JONES LEBANON,MO,37.648,-92.652,-7.6,56.243013698630136,100.4,,12598.739999999998,,
34,720129,AUSTIN ARPT,NV,39.468,-117.197,-15.9,41.56726726726726,95.7,,3604.2100000000005,,
35,720168,COVINGTON MUNI,TN,35.583,-89.587,14.0,61.104927536231884,98.6,,0.0,,
36,721046,LOUISIANA REGIONAL AIRPORT,LA,30.173,-90.941,23.0,69.17445054945054,98.6,,5699.46,,
37,720472,STEVEN A BEAN MUNI,ME,44.992,-70.665,-22.0,39.4267657992565,132.8,,14998.499999999996,,
38,720475,NORTHWEST MISSOURI RGNL,MO,40.353,-94.915,-7.8,53.726027397260275,99.0,,10898.91,,
39,720581,LINDEN AIRPORT,NJ,40.617,-74.25,6.8,55.78627450980392,99.7,,3863.7599999999998,,
40,720478,LAWRENCE SMITH MEM,MO,38.611,-94.342,-4.0,56.25635359116022,100.4,,13398.659999999998,,
41,720835,MADELINE ISLAND,WI,46.789,-90.759,-18.9,40.020604395604394,88.2,,20597.94,,
42,720451,ADDINGTON FLD,KY,37.686,-85.925,1.8,56.017127071823204,98.4,,2633.31,,
43,720709,PUTNAM COUNTY AIRPORT,OH,41.036,-83.982,-13.0,52.82686980609418,98.6,,0.0,,
44,A00028,SALT LAKE CITY MUNI 2 ARPT   ,UT,40.619,-111.993,8.6,51.86553672316384,100.8,,0.0,,
45,720171,WILLIAM L WHITEHURST FLD,TN,35.214,-89.043,-0.4,60.26109589041096,98.6,,0.0,,
46,720553,PORT AUTH DOWNTN MANHATTAN WA,NY,40.701,-74.009,19.0,59.06564417177914,98.1,,605.23,,
47,720507,BESSEMER AIPORT,AL,33.313,-86.926,9.0,63.28273972602739,97.0,,845.4,,
48,720681,CALAVERAS CO MAURY RASMUSSEN,CA,38.146,-120.648,24.6,61.12320441988951,111.9,,0.0,,
49,720484,MEXICO MEM,MO,39.158,-91.818,-7.6,52.160000000000004,98.6,,12598.74,,
50,720684,PHIFER AFLD,WY,42.05,-104.933,-20.7,50.67445054945055,104.5,,6805.280000000001,,
51,720417,JOHNSON (STANTON CO MUNI)    ,KS,37.583,-101.733,-5.8,55.87083333333334,107.1,,8199.179999999998,,
52,720465,WILLIAMSBURG (WHITLEY CO ARPT,KY,36.8,-84.2,-0.4,56.043956043956044,93.2,,0.0,,
53,720331,KENNETT MEM,MO,36.226,-90.037,-2.2,60.66301369863014,102.2,,10998.900000000001,,
54,723271,JOHN C TUNE,TN,36.182,-86.887,3.2,60.630578512396696,100.4,,7099.289999999999,,
55,720425,HUGOTON MUNI,KS,37.163,-101.371,-7.8,55.44705882352941,105.8,,3906.2200000000003,,
56,A07141,COOPERSTOWN MUNICIPAL AIRPORT,ND,47.423,-98.106,-29.2,38.68947368421053,98.6,,14098.59,,
57,723897,FRESNO CHANDLER EXECUTIVE,CA,36.732,-119.82,32.0,53.59166666666667,80.6,,0.0,,
58,720907,CAMPBELL CO,TN,36.335,-84.162,1.4,56.783279742765274,95.0,,0.0,,
59,720572,BOLINDER FIELD TOOELE VALLEY,UT,40.612,-112.351,-0.4,51.33137254901961,104.0,,11498.85,,
60,720488,SIKESTON MEM MUNI,MO,36.899,-89.562,-2.2,59.934383954154725,100.4,,11598.839999999998,,
61,720983,FOXTROT (DIX)                ,NE,41.367,-103.483,28.0,63.22368421052632,98.8,,1.3900000000000001,,
62,720988,KILO (DIX)                   ,NE,41.133,-103.483,-11.7,32.082278481012665,80.8,,2000.29,,
63,720989,LIMA (GROVER)                ,CO,40.917,-103.7,-9.4,29.379032258064516,69.1,,2399.8900000000003,,
64,720992,NOVEMBER (GROVER)            ,CO,40.633,-103.833,-15.0,52.886315789473684,101.8,,2809.91,,
65,720483,MARSHALL MEM MUNI,MO,39.096,-93.203,-7.6,53.678453038674036,96.8,,12198.78,,
66,721011,ALPHA (BALFOUR)              ,ND,47.967,-100.581,-24.9,29.35338345864662,73.4,,202.7,,
67,720464,PIKE CO HATCHER FLD,KY,37.562,-82.566,8.6,57.05331412103746,92.1,,16298.369999999997,,
68,A00018,DELTA MUNICIPAL AIRPORT,UT,39.383,-112.517,3.2,52.92678571428572,104.0,,0.0,,
69,720449,ASHLAND RGNL,KY,38.555,-82.738,-2.9,54.418079096045204,95.0,,229.86,,
70,A07053,TRINITY CENTER AIRPORT,CA,40.983,-122.694,17.6,34.04761904761905,57.2,,0.0,,
71,720406,GNOSS FIELD AIRPORT,CA,38.15,-122.55,24.8,57.75152354570637,111.2,,8399.159999999996,,
72,A06773,TUCKER GUTHRIE MEMORIAL AIRPO,KY,36.859,-83.358,9.9,56.47780979827089,93.2,,0.0,,
73,A06854,BIG BEAR CITY AIRPORT,CA,34.264,-116.854,-0.4,46.23729281767957,86.0,,5999.4,,
74,A07049,PETALUMA MUNICIPAL AIRPORT,CA,38.25,-122.6,24.8,54.902247191011234,107.6,,0.0,,
75,A07056,J DOUGLAS BAKE MEMORIAL AIRPO,WI,44.874,-87.91,-20.0,43.854317548746515,94.1,,0.0,,
76,A07354,WAUTOMA MUNICIPAL AIRPORT,WI,44.033,-89.3,-25.1,44.24494382022472,95.0,,118.33,,
77,A07355,VIROQUA MUNICIPAL AIRPORT,WI,43.579,-90.913,-16.1,44.26345609065155,93.2,,0.0,,
78,A07357,ELBOW LAKE MUNICIPAL PRIDE OF,MN,45.986,-95.992,-25.2,40.63818681318682,99.0,,17198.28,,
79,A07359,IONIA COUNTY AIRPORT,MI,42.938,-85.061,-4.5,48.582967032967034,95.9,,19698.029999999995,,
80,A06800,TAZEWELL COUNTY AIRPORT,VA,37.067,-81.8,-6.7,51.03814102564103,86.4,,14798.52,,
81,A06884,LURAY CAVERNS AIRPORT,VA,38.667,-78.501,3.2,55.12176308539946,95.0,,14998.5,,
82,A07086,CARL R KELLER FIELD AIRPORT,OH,41.516,-82.869,-4.0,51.51101928374656,96.8,,16298.369999999997,,
83,A51255,DEMOPOLIS MUNICIPAL AIRPORT,AL,32.464,-87.954,13.1,65.10166204986152,100.2,,15298.470000000001,,
84,A51256,BRANSON WEST MUNICIPAL EMERSO,MO,36.699,-93.402,-5.8,58.142458100558656,104.0,,17998.199999999997,,
85,720567,BRIGHAM CITY AIRPORT,UT,41.552,-112.062,-0.9,51.115616438356156,103.1,,0.0,,
86,724733,HANKSVILLE,UT,38.417,-110.7,5.0,54.85616438356165,104.0,,0.0,,
87,A00016,BLANDING MUNICIPAL AIRPORT,UT,37.583,-109.483,9.7,52.499171270718236,98.8,,0.0,,
88,720519,POWELL MUNI,WY,44.867,-108.793,-31.0,43.88159340659341,98.6,,14498.549999999997,,
89,720491,GWINNER ROGER MELROE FIELD AI,ND,46.217,-97.633,-25.6,41.16418732782368,96.8,,0.0,,
90,720534,ERIE MUNICIPAL AIRPORT,CO,40.017,-105.05,-18.9,50.161731843575424,101.7,,12998.699999999997,,
91,720777,LAWRENCEVILLE BRUNSWICK MUNI,VA,36.773,-77.794,10.2,59.54191780821918,98.2,,30.1,,
92,722781,HENRY CO,TN,36.338,-88.383,-4.0,58.596712328767126,98.6,,0.0,,
93,720558,ELK CITY MUNICIPAL AP,OK,35.433,-99.4,0.9,60.443732590529244,107.2,,5302.77,,
94,720551,MINDEN TAHOE AIRPORT,NV,39.0,-119.751,3.2,49.276815642458104,102.2,,7099.289999999999,,
95,720984,GOLF (SIDNEY)                ,NE,41.217,-103.1,-5.6,49.170103092783506,100.8,,0.03,,
96,720452,FLEMING/MASON AIRPORT,KY,38.542,-83.743,-3.1,54.71401098901099,95.4,,17298.269999999997,,
97,A00015,COLORADO CITY MUNI AIRPORT,AZ,36.96,-113.014,3.2,55.57861111111111,105.8,,7099.29,,
98,703656,QUINHAGAK AIRPORT,AK,59.75,-161.833,-32.8,35.676399999999994,80.1,,2005.1,,
99,720508,MERKEL FLD SYLACAUGA MUNI,AL,33.172,-86.306,9.9,62.52301369863013,96.1,,2939.1399999999994,,
100,722266,CRAIG FLD,AL,32.344,-86.988,15.8,64.040395480226,98.6,,26597.339999999993,,
101,720575,INDIANAPOLIS EXECUTIVE AIRPOR,IN,40.031,-86.251,-10.3,51.115616438356156,97.2,,9869.840000000002,,
102,720982,ECHO (PINE BLUFFS)           ,NE,41.117,-103.983,-22.2,48.076284584980236,97.9,,2306.89,,
103,722219,SHELL AHP,AL,31.363,-85.849,14.0,66.39504132231406,102.9,,237.23000000000002,,
104,998213,MIDDLE TAMPA BAY,FL,27.65,-82.583,35.2,73.53047091412743,91.8,,0.0,,
105,720516,AFTON MUNI,WY,42.711,-110.942,-23.8,36.280386740331494,93.2,,10698.929999999998,,
106,720997,DELTA (DENTON)               ,MT,47.383,-109.817,-25.6,44.348433048433044,101.7,,8.940000000000001,,
107,720994,ALPHA (RAYNESFORD)           ,MT,47.283,-110.8,-23.8,43.545259938837916,98.6,,4409.35,,
108,721001,GOLF (SIMMS)                 ,MT,47.333,-112.1,-37.1,43.12054380664652,97.3,,5308.029999999999,,
109,721009,OSCAR (ROY)                  ,MT,47.333,-108.933,-22.5,35.69621848739496,104.5,,3905.02,,
110,720895,GLEN ULLIN REGIONAL,ND,46.813,-101.86,-29.2,40.60580110497237,98.6,,12198.779999999999,,
111,720987,JULIET (PEETZ)               ,CO,40.967,-103.2,-10.5,47.95018315018315,103.3,,5.1899999999999995,,
112,720779,MEXIA LIMESTONE COUNTY AIRPOR,TX,31.641,-96.514,12.4,69.1952380952381,106.0,,15.31,,
113,720986,INDIA (SIDNEY)               ,NE,41.05,-102.867,-18.9,48.76267409470751,103.8,,7.959999999999999,,
114,720903,DAVIESS COUNTY AIRPORT,IN,38.7,-87.13,-6.7,55.02486187845304,97.5,,7608.41,,
115,720561,WILLIAM R POUGE MUNICIPAL AIR,OK,36.175,-96.152,2.3,59.551186440677974,110.3,,522.7600000000001,,
116,720985,HOTEL (GURLEY)               ,NE,41.317,-102.833,-20.2,48.123463687150846,104.2,,308.19000000000005,,
117,720569,KANAB MUNI,UT,37.011,-112.531,3.2,55.6814606741573,102.2,,0.0,,
118,720518,FORT BRIDGER AIRPORT,WY,41.393,-110.406,-7.8,48.82243346007604,95.4,,19798.02,,
119,703891,ELIM AIRPORT,AK,64.617,-162.267,-20.0,30.882985074626866,77.0,,15.97,,
120,720981,DELTA (KIMBALL)              ,NE,41.367,-103.8,-22.5,46.63913043478261,101.5,,3004.3600000000006,,
121,721048,PRESIDIO LELY INTERNATIONAL A,TX,29.634,-104.361,20.3,70.62872928176795,109.8,,2809.78,,
122,722221,DIXON AIRPORT,WY,41.037,-107.493,-24.3,30.51727272727273,86.5,,15298.47,,
123,720517,KEMMERER MUNICIPAL AIRPORT,WY,41.824,-110.557,-9.4,36.532792207792205,87.8,,13598.64,,
124,A00029,EVERETT-STEWART AIRPORT,TN,36.38,-88.985,-4.0,59.44012738853503,98.6,,0.0,,
125,721002,HOTEL (FAIRFIELD)            ,MT,47.7,-111.95,-28.7,45.14697406340058,99.3,,3705.51,,
126,720522,DUBOIS MUNICIPAL AIRPORT,WY,43.548,-109.69,-32.8,40.48045325779037,89.6,,14098.589999999998,,
127,720468,ST LANDRY PARISH AIRPORT AHAR,LA,30.558,-92.099,17.2,66.48324175824176,98.2,,2944.36,,
128,720521,SHIVELY FIELD AIRPORT,WY,41.444,-106.828,-22.0,42.47397260273973,91.4,,13898.609999999999,,
129,720394,DEXTER B FLORENCE MEMORIAL FI,AR,34.1,-93.066,10.0,58.387867647058826,98.1,,84.52,,
130,702700,BRYANT ARMY AIRFIELD HELIPORT,AK,61.266,-149.653,-25.6,36.0481690140845,81.3,,6316.36,,
131,994951,SEBASTIAN INLET STATE PARK,FL,27.862,-80.445,40.1,74.22286821705428,89.6,,0.0,,
132,722355,VICKSBURG MUNICIPAL AIRPORT,MS,32.233,-90.933,12.2,65.17134670487106,96.8,,0.0,,
133,725023,CLEVELAND MUNICIPAL AIRPORT,MS,33.861,-90.758,8.4,68.53591160220995,99.1,,2241.62,,
134,723249,MAURY COUNTY AIRPORT,TN,35.554,-87.179,5.0,59.1704871060172,98.6,,0.0,,
135,720977,ALPHA (BURNS)                ,WY,41.333,-104.267,-23.8,46.881159420289855,124.7,,406.1399999999999,,
136,720978,BRAVO (PINE BLUFFS)          ,NE,41.517,-104.0,-23.8,47.032471264367814,100.8,,207.04000000000002,,
137,720979,CHARLIE (GERING)             ,NE,41.583,-103.667,-21.1,49.058028169014094,103.8,,3108.7899999999995,,
138,720993,OSCAR (GROVER)               ,CO,40.883,-104.0,14.9,65.71825396825396,96.1,,18.22,,
139,998496,OAKLAND,CA,37.795,-122.288,38.3,57.712777777777774,94.8,,0.0,,
140,720644,BUCKEYE MUNICIPAL AIRPORT,AZ,33.417,-112.683,28.4,72.57000000000001,113.0,,0.0,,
141,720769,GEORGE M BRYAN AIRPORT,MS,33.433,-88.849,10.4,65.7624183006536,114.8,,28197.179999999997,,
142,720902,DUPONT LAPEER AIRPORT,MI,43.067,-83.267,-15.5,48.22,95.4,,15832.779999999999,,
143,720606,CHARLESTON EXECUTIVE AIRPORT,SC,32.701,-80.003,17.6,66.79479452054794,100.4,,27997.199999999997,,
144,720609,LOWCOUNTRY REGIONAL AIRPORT,SC,32.917,-80.633,15.8,64.2558904109589,98.6,,30396.95999999999,,
145,997178,MARMION ISLAND,AK,58.198,-134.257,7.5,43.824383561643835,77.2,,0.0,,
146,997179,MARY ISLAND,AK,55.099,-131.182,14.0,46.73416666666667,78.3,,0.0,,
147,997176,HOMER SPIT,AK,59.602,-151.417,9.3,42.48849315068493,64.4,,0.0,,
148,997177,ICY BAY,AK,59.923,-141.359,40.1,46.86,54.9,,0.0,,
149,720642,CHEYENNE MTN AS,CO,38.75,-104.85,-12.6,47.68293515358362,90.1,,805.8399999999999,,
150,720776,HESLER NOBLE FLD,MS,31.673,-89.172,14.7,64.18328445747801,103.1,,1457.5899999999997,,
151,720476,HANNIBAL REGIONAL AIRPORT,MO,39.725,-91.444,-7.6,49.326449275362314,100.4,,10498.949999999999,,
152,997171,SITKA,AK,57.052,-135.342,11.3,45.75999999999999,77.5,,0.0,,
153,997173,KAWAIHAE,HI,20.037,-155.829,66.9,77.77430167597765,90.0,,0.0,,
154,997174,CHARLESTON,SC,32.782,-79.925,20.1,68.40278551532035,96.6,,0.0,,
155,721015,ECHO (RYDER)                 ,ND,47.751,-101.674,-27.2,14.496610169491525,70.3,,300.06,,
156,721014,DELTA (MAX)                  ,ND,47.795,-101.299,-17.3,49.53961538461539,97.2,,509.01000000000005,,
157,721012,BRAVO (VELVA)                ,ND,47.909,-100.927,-22.7,26.206578947368417,90.5,,199.98,,
158,721017,GOLF (PLAZA)                 ,ND,48.12,-101.96,-28.8,29.397844827586205,95.0,,405.31999999999994,,
159,721023,LIMA (BOWBELLS)              ,ND,48.789,-102.269,-30.8,39.43976261127597,95.5,,110.99,,
160,720641,SCHRIEVER AFB,CO,38.8,-104.517,12.2,38.08,62.6,,0.0,,
161,997079,THUNDER BAY ISLAND,MI,45.035,-83.194,5.0,44.18739726027397,83.1,,0.0,,
162,721021,JULIET (DONNYBROOK)          ,ND,48.412,-101.892,-27.8,30.876068376068375,93.9,,205.24,,
163,721022,KILO (DONNYBROOK 2)          ,ND,48.551,-102.12,-29.2,42.59006849315069,92.7,,209.20000000000002,,
164,721013,CHARLIE (RUSO)               ,ND,47.714,-101.01,-28.7,38.365229885057474,97.2,,508.05,,
165,721026,OSCAR (ANTLER)               ,ND,48.825,-101.283,-38.0,38.62682215743441,96.4,,116.37999999999997,,
166,721024,MIKE (KENMARE)               ,ND,48.673,-101.882,-31.5,31.110555555555557,95.2,,106.42,,
167,721005,KILO (HARLOWTOWN)            ,MT,46.45,-109.8,-27.9,43.40689655172413,100.6,,5414.039999999998,,
168,720995,BRAVO (GEYSER)               ,MT,47.283,-110.367,-23.8,40.00535714285714,96.1,,302.2,,
169,721003,INDIA (ULM)                  ,MT,47.317,-111.467,-35.5,45.4665671641791,101.7,,2911.2399999999993,,
170,720467,GEORGE R CARR MEMORIAL AIR FI,LA,30.817,-89.867,21.0,67.49561643835615,101.3,,59.97999999999998,,
171,721019,INDIA (PALERMO)              ,ND,48.345,-102.304,-26.3,41.596451612903216,95.2,,609.89,,
172,721016,FOXTROT (RYDER 2)            ,ND,47.896,-101.674,-24.0,40.65648148148148,95.0,,209.57,,
173,721018,HOTEL (PARSHALL)             ,ND,47.974,-102.223,-27.9,38.14206896551725,98.8,,204.63,,
174,721045,MIDWEST NATIONAL AIR CENTER A,MO,39.332,-94.31,-5.8,53.751098901098906,98.6,,23797.619999999995,,
175,721043,ATHENS MUNI,TX,32.164,-95.828,12.2,65.74876712328766,105.8,,8599.140000000001,,
176,721042,ZEPHYRHILLS MUNICIPAL AIRPORT,FL,28.228,-82.156,24.1,70.53130193905817,97.7,,5446.55,,
177,721044,RALPH M HALL ROCKWALL MUNICIP,TX,32.931,-96.435,10.4,66.19424657534248,106.0,,223.10000000000002,,
178,721036,BOYSEN THERMOPOL,WY,43.467,-108.389,-29.2,37.78756756756757,87.8,,9399.06,,
179,725060,NANTUCKET MEMORIAL AIRPORT,MA,41.253,-70.061,10.9,54.88109589041096,90.0,,118.04999999999997,1.0,
180,721041,MARCO ISLAND,FL,25.995,-81.673,37.0,75.15924764890283,97.0,,8599.919999999998,,
181,720535,FORT MORGAN MUNICIPAL AIRPORT,CO,40.333,-103.8,-18.4,49.01633802816901,102.2,,11698.830000000002,,
182,720998,ECHO (WINIFRED)              ,MT,47.45,-109.417,-25.6,44.96360946745561,101.5,,5707.3,,
183,744667,RAY S MILLER AAF / CAMP RIPLE,MN,46.091,-94.361,-33.2,41.10698324022346,100.9,,125.72,,
184,721035,HAZLEHURST AIRPORT,GA,31.885,-82.647,17.6,65.96443148688044,102.0,,11898.81,,
185,720991,MIKE (HAXTUN)                ,CO,40.7,-103.483,-17.0,48.99630681818181,102.6,,2506.7699999999995,,
186,721033,FITZGERALD MUNICIPAL AIRPORT,GA,31.684,-83.27,17.4,66.72465753424657,104.9,,5899.409999999999,,
187,721008,NOVEMBER (GRASS RANGE)       ,MT,47.067,-109.033,-23.3,33.91182795698926,87.6,,2.5699999999999994,,
188,998499,NORTHERLY ISLAND,IL,41.856,-87.609,-8.0,51.23222222222222,97.0,,0.0,,
189,720999,FOXTROT (AUGUSTA)            ,MT,47.6,-112.317,-34.1,41.81761194029851,96.1,,4705.95,,
190,721007,MIKE (MOORE)                 ,MT,47.017,-109.633,-29.4,36.90141509433962,97.2,,2206.0899999999997,,
191,721006,LIMA (JUDITH GAP)            ,MT,46.7,-109.733,-14.8,29.960714285714285,74.3,,1301.01,,
192,725258,TOCCOA RG LETOURNEAU FIELD AI,GA,34.594,-83.296,6.1,61.1182584269663,100.4,,9419.219999999998,,
193,723274,UPPER CUMBERLAND REGIONAL AIR,TN,36.056,-85.531,3.2,57.52445054945055,95.0,,0.0,,
194,720996,CHARLIE (STANFORD)           ,MT,47.1,-110.167,-23.1,43.04952076677317,96.8,,4309.879999999999,,
195,720456,MOUNT STERLING MONTGOMERY COU,KY,38.067,-83.983,1.4,55.6207756232687,95.0,,5299.469999999999,,
196,720458,BIG SANDY REGIONAL AIRPORT,KY,37.751,-82.637,-1.5,56.63726027397259,93.7,,17898.21,,
197,721004,JULIE (POWER)                ,MT,47.75,-111.55,-32.6,41.9,97.3,,3608.4199999999996,,
198,721034,CAMERON MUNICIPAL AIRPORT,TX,30.879,-96.971,13.5,69.27056962025316,107.6,,21.21,,
199,720437,CHEYENNE COUNTY MUNICIPAL AIR,KS,39.767,-101.8,-16.1,52.0467787114846,110.1,,0.0,,
200,725283,CATTARAUGUS COUNTY OLEAN AIRP,NY,42.241,-78.371,-4.0,45.0225,86.0,,45195.479999999974,,
201,721031,TULLAHOMA REGIONAL AIRPORT WI,TN,35.38,-86.246,3.2,58.37902298850574,96.8,,0.0,,
202,720422,SHALTZ FIELD AIRPORT,KS,39.428,-101.046,-16.2,52.18384401114206,109.9,,3910.12,,
203,721029,LA PORTE MUNICIPAL AIRPORT,IN,41.572,-86.735,-9.4,49.07397260273972,97.3,,7020.879999999999,,
204,721028,MIDDLEBURY STATE AIRPORT,VT,43.985,-73.095,-18.0,46.76759776536313,93.9,,5027.09,,
205,720169,WASHINGTON REGIONAL AIRPORT,MO,38.583,-91.0,-4.0,56.18204419889502,102.2,,13298.67,,
206,720531,BLAKE FIELD AIRPORT,CO,38.783,-108.067,4.6,54.074520547945205,104.9,,5502.92,,
207,720904,DELAND MUNICIPAL AIRPORT SIDN,FL,29.067,-81.283,25.0,71.26198347107437,98.6,,6127.78,,
208,720974,WINCHESTER MUNICIPAL AIRPORT,TN,35.178,-86.066,5.0,59.725,96.8,,0.0,,
209,720559,STAN STAMPER MUNICIPAL AIRPOR,OK,34.033,-95.533,5.0,60.87076923076923,105.8,,10098.989999999998,,
210,720971,SOUTH PASS,WY,42.517,-108.783,-23.8,37.403906250000006,82.4,,11598.839999999998,,
211,720964,TYNDALL DRONE RUNWAY,FL,30.033,-85.533,19.9,70.18948863636362,99.1,,1333.8500000000001,,
212,998492,ALGONAC,MI,42.621,-82.527,1.0,49.217451523545705,99.0,84.00000000000001,0.0,,
213,998490,TEXAS POINT,TX,29.689,-93.842,18.7,69.009243697479,90.9,,0.0,,
214,726358,MICHIGAN CITY MUNICIPAL AIRPO,IN,41.703,-86.821,-4.0,49.777840909090905,93.2,,35796.419999999984,,
215,746941,MONROE COUNTY AIRPORT,MS,33.873,-88.49,12.2,62.68571428571429,100.4,,26197.38,,
216,720504,TALLADEGA MUNI,AL,33.57,-86.051,10.4,59.01892857142857,97.3,,2827.03,,
217,A05735,BOWIE MUNICIPAL AIRPORT,TX,33.6,-97.783,7.7,63.49162011173184,110.7,,404.61,,
218,720967,FALSE RIVER REGIONAL AIRPORT,LA,30.718,-91.479,18.3,66.67190082644628,96.6,,5835.22,,
219,720968,SILER CITY MUNICIPAL AIRPORT,NC,35.704,-79.504,8.2,59.02194444444444,96.1,,4423.7,,
220,720887,MANITOWISH WATERS AIRPORT,WI,46.117,-89.883,-27.9,39.17917808219178,93.6,,10318.18,,
221,702004,WHITE MOUNTAIN,AK,64.689,-163.413,-31.0,29.098837209302324,77.0,,5499.47,,
222,720972,ST MARY HOSPITAL HELIPORT,MN,44.017,-92.483,-15.0,45.386263736263736,95.0,,13.670000000000002,,
223,720966,GRIFFIN SPALDING COUNTY AIRPO,GA,33.227,-84.275,17.6,61.756944444444436,96.8,,4199.58,,
224,997742,MIDDLE BAY LIGHT,AL,30.433,-88.0,46.9,65.45,81.3,,0.0,,
225,720962,HEART OF GEORGIA REGIONAL AIR,GA,32.214,-83.128,14.0,64.44668508287293,100.4,,26997.3,,
226,720961,LOGANSPORT CASS COUNTY AIRPOR,IN,40.711,-86.375,-11.2,49.155649717514116,95.0,,16498.35,,
227,998486,PILOT TOWN,LA,29.178,-89.258,27.5,70.0782122905028,92.7,,0.0,,
228,998485,BON SECOUR,AL,30.329,-87.829,22.3,73.81283018867926,95.7,,0.0,,
229,998482,TEXAS STATE AQUARIUM,TX,27.812,-97.39,21.6,72.25277777777778,90.9,,0.0,,
230,998481,MANCHESTER,TX,29.726,-95.266,16.7,71.09832402234636,102.0,,0.0,,
231,998483,S PADRE ISLAND CGS,TX,26.077,-97.177,29.3,72.9028328611898,87.1,,0.0,,
232,998487,PORT LAVACA,TX,28.64,-96.595,19.6,70.15921787709496,93.4,,0.0,,
233,749484,SOUTH COUNTY AIRPORT OF SANTA,CA,37.082,-121.597,28.4,58.85260273972603,109.4,,7199.279999999998,,
234,749483,JACKSON COUNTY AIRPORT,GA,34.147,-83.561,20.1,61.67071823204421,99.1,,3885.44,,
235,720839,RENO STEAD AIRPORT,NV,39.667,-119.876,3.2,50.224793388429745,98.6,,6799.319999999999,,
236,749485,ROHNERVILLE AIRPORT,CA,40.554,-124.133,26.6,50.2374613003096,77.0,,0.0,,
237,749486,NEVADA COUNTY AIR PARK,CA,39.224,-121.003,24.8,60.596408839779,107.6,,0.0,,
238,998474,DAVIS POINT  SAN PABLO BAY,CA,38.057,-122.259,37.8,58.7300835654596,96.6,,0.0,,
239,998475,MARTINEZ-AMORCO,CA,38.033,-122.125,35.4,59.643016759776536,102.4,,0.0,,
240,998476,OAKLAND (BERTH 34)           ,CA,37.811,-122.333,39.0,56.57935103244837,86.2,,0.0,,
241,998477,RICHMOND (POINT POTRERO)     ,CA,37.906,-122.365,39.9,57.44233983286908,93.9,,0.0,,
242,998478,PITTSBURG (SUISUN BAY)       ,CA,38.042,-121.887,33.1,61.56666666666667,103.6,,0.0,,
243,998479,SAN FRANCISCO (PIER 1)       ,CA,37.798,-122.393,41.2,56.812813370473535,96.1,,0.0,,
244,720953,MAIN PASS 289 C OIL PLATFORM ,LA,29.248,-88.441,42.8,76.57055837563452,93.2,,0.0,,
245,720954,ALAMINOS CANYON,TX,26.933,-94.683,44.6,76.65895316804409,96.8,,0.0,,
246,720948,JIMMY CARTER REGIONAL AIRPORT,GA,32.11,-84.189,13.6,65.14020270270271,104.0,,11698.83,,
247,720951,EAST GEORGIA REGIONAL AIRPORT,GA,32.609,-82.37,15.8,65.86758241758244,104.0,,14998.499999999998,,
248,720949,CAMDENTON MEMORIAL AIRPORT,MO,37.974,-92.691,-5.8,56.249315068493146,102.2,,12498.75,,
249,998442,CUTLER FARRIS WHARF,ME,44.657,-67.21,-8.0,45.48638888888889,82.4,,0.0,,
250,998439,CEDAR POINT,AL,30.308,-88.14,21.9,73.09311740890689,100.6,,0.0,,
251,704898,ROBERT (BOB) CURTIS MEMORIAL,AK,66.818,-161.022,-47.9,26.357758620689655,78.1,,14.340000000000003,,
252,720943,HARRISON COUNTY AIRPORT,TX,32.521,-94.308,8.1,64.1252808988764,104.9,,2918.41,,
253,720942,WAHOO MUNICIPAL AIRPORT,NE,41.233,-96.6,-15.0,50.7743093922652,104.7,,5313.16,,
254,744660,JASPER COUNTY AIRPORT,IN,40.948,-87.183,-14.8,49.30552325581395,95.0,,15098.489999999998,,
255,720933,LINTON MUNICIPAL AIRPORT,ND,46.218,-100.245,-27.4,41.551800554016616,100.4,,14198.58,,
256,720944,BELLEFONTAINE REGIONAL AIRPOR,OH,40.367,-83.817,1.4,52.98359621451104,93.2,,0.0,,
257,720946,FERNANDINA BEACH MUNICIPAL AI,FL,30.617,-81.467,23.0,69.51068493150687,102.2,,9113.46,,
258,720499,HAMPTON ROADS EXECUTIVE AIRPO,VA,36.783,-76.45,6.1,58.141642228739,99.0,,6008.61,,
259,720739,MINDEN AIRPORT,LA,32.646,-93.298,9.1,65.83757062146893,103.1,,4339.12,,
260,720932,BROOKHAVEN LINCOLN COUNTY AIR,MS,31.606,-90.409,15.8,64.11479452054795,96.8,,7199.279999999999,,
261,720787,JOHN BELL WILLIAMS AIRPORT,MS,32.304,-90.411,14.0,63.906034482758635,98.6,,15498.449999999997,,
262,726873,IDAHO COUNTY AIRPORT,ID,45.943,-116.123,-7.6,45.33452054794521,98.6,,0.0,,
263,998438,TESORO MARINE TERMINAL,LA,29.667,-91.233,23.0,68.8245810055866,95.7,,0.0,,
264,720928,DELAWARE MUNICIPAL JIM MOORE,OH,40.28,-83.115,-5.8,50.31703296703297,95.0,,17698.229999999996,,
265,749048,KEYSTONE AIRPARK,FL,29.845,-82.048,21.2,68.64903581267218,98.6,,0.0,,
266,720927,FLETCHER FIELD AIRPORT,MS,34.3,-90.512,19.4,64.1489552238806,98.6,,0.0,,
267,720925,ATLANTIS OIL PLATFORM,LA,27.2,-90.033,44.6,72.48823529411766,89.6,,0.0,,
268,720926,BEAUMONT MUNICIPAL AIRPORT,TX,30.071,-94.216,15.8,69.1745205479452,101.5,,14398.559999999998,,
269,720929,CUMERLAND MUNICIPAL AIRPORT,WI,45.506,-91.981,-22.0,42.9934065934066,95.0,,17398.26,,
270,720735,NORTHWEST FLORIDA BEACHES INT,FL,30.349,-85.788,19.0,67.7695890410959,99.0,,123.86,,
271,722518,NAVAL AUXILIARY LANDING FD,TX,27.9,-98.05,19.9,70.475,105.1,,17198.28,,
272,726950,NEWPORT MUNICIPAL AIRPORT,OR,44.583,-124.05,21.2,49.71742857142858,89.6,,39796.01999999998,,
273,785265,FERNANDO LUIS RIBAS DOMINICCI,PR,18.457,-66.098,69.8,81.83977900552486,93.2,,12198.779999999999,,
274,724678,STEAMBOAT SPRINGS/BOB ADAMS F,CO,40.517,-106.867,-17.0,39.93178082191781,91.6,,0.0,,
275,720505,WALKER COUNTY AIRPORT BEVILL,AL,33.902,-87.314,6.8,61.26448863636364,102.2,,9099.089999999998,,
276,722118,VENICE MUNICIPAL AIRPORT,FL,27.072,-82.44,35.6,74.52025316455696,93.2,,23797.619999999995,,
277,720924,ROSCOE TURNER AIRPORT,MS,34.915,-88.604,10.4,61.65126050420167,98.6,,34996.499999999985,,
278,720923,BOUNDARY COUNTY AIRPORT,ID,48.726,-116.295,-22.0,44.08999999999999,96.8,,13198.68,,
279,720913,SALSA,LA,27.833,-91.983,55.4,78.9784,93.2,,0.0,,
280,720916,GREEN CANYON 338             ,LA,27.63,-90.45,39.2,77.21433566433565,96.8,,0.0,,
281,720918,MAIN PASS 140B               ,LA,29.296,-88.842,41.0,69.14638554216866,89.6,,0.0,,
282,720912,VIOSCA KNOLL 768 OIL PLATFORM,AL,29.233,-87.783,33.8,75.60893371757926,98.6,,0.0,,
283,720699,CARROLL CO RGNL/JJACK B POAGE,MD,39.608,-77.008,3.2,57.29583333333332,102.2,,32596.739999999983,,
284,742071,GRAY AFF AIRPORT,WA,47.083,-122.583,11.8,51.04273972602739,97.0,2.4,1063.14,,3.0
285,785510,HENRY E ROHLSEN AIRPORT,VI,17.7,-64.813,66.0,80.95095890410958,95.0,,240.95,,
286,720455,MADISON AIRPORT,KY,37.633,-84.333,5.0,56.96239554317549,98.6,,2199.7799999999997,,
287,720911,BARNES COUNTY MUNICIPAL AIRPO,ND,46.942,-98.018,-27.4,39.33443526170799,96.8,,26697.329999999994,,
288,746380,MELROSE GUNNERY RANGE,NM,34.295,-103.786,4.3,59.66007604562739,104.0,,216.24,,
289,720867,RUGBY MUNICIPAL AIRPORT,ND,48.39,-100.024,-32.8,30.791000000000004,98.6,,26397.360000000004,,
290,720868,WATFORD CITY MUNICIPAL AIRPOR,ND,47.796,-103.254,-29.2,40.79329608938547,100.4,,31196.879999999994,,
291,720909,STANLEY MUNICIPAL AIRPORT,ND,48.301,-102.406,-29.2,38.58563535911601,95.0,,14598.539999999999,,
292,720869,JESSE VIERTEL MEMORIAL AIRPOR,MO,38.947,-92.683,-4.9,56.53598901098901,102.0,,3425.92,,
293,720538,VANCE BRAND AIRPORT,CO,40.167,-105.167,-17.9,52.27019498607242,104.2,,6106.889999999999,,
294,720852,MEADOW LAKE AIRPORT,CO,38.946,-104.57,-38.0,48.03314447592068,96.4,,13598.64,,
295,720856,SCOTTSBORO MUNICIPAL AIRPORT,AL,34.689,-86.006,6.8,61.25412087912088,96.8,,14498.55,,
296,720537,HOLYOKE AIRPORT,CO,40.567,-102.267,-13.0,52.47403314917127,107.6,,9599.039999999999,,
297,720544,STERLING MUNICIPAL AIRPORT,CO,40.617,-103.267,-16.6,49.43649025069638,102.2,,10598.939999999999,,
298,720864,TARBORO EDGECOMBE AIRPORT,NC,35.937,-77.547,11.8,60.955,100.4,,3331.47,,
299,720858,CANDO MUNICIPAL AIRPORT,ND,48.48,-99.236,-34.6,36.90602739726027,96.8,,13198.68,,
300,720853,ROLLA MUNICIPAL AIRPORT,ND,48.884,-99.621,-32.8,35.68005540166205,95.0,,17798.219999999998,,
301,720854,BEACH AIRPORT,ND,46.925,-103.982,-25.6,37.64766355140187,96.8,,15398.46,,
302,720855,CAVALIER MUNICIPAL AIRPORT,ND,48.784,-97.632,-32.8,37.91322314049586,96.8,,17098.289999999997,,
303,720859,BLACK RIVER FALLS AREA AIRPOR,WI,44.251,-90.855,-28.1,43.674238227146816,97.0,,6422.07,,
304,720861,CROSBY MUNICIPAL AIRPORT,ND,48.929,-103.297,-36.4,37.914404432132976,96.8,,13498.65,,
305,720863,TIOGA MUNICIPAL AIRPORT,ND,48.381,-102.898,-31.0,37.69083333333333,95.0,,7099.289999999998,,
306,720865,HUTSON FIELD AIRPORT,ND,48.405,-97.371,-32.8,38.27619047619047,98.6,,15998.399999999998,,
307,720866,MERCER COUNTY REGIONAL AIRPOR,ND,47.29,-101.581,-23.8,40.778670360110794,98.6,,16798.319999999996,,
308,720871,MANDAN MUNICIPAL AIRPORT,ND,46.768,-100.894,-23.8,40.99005524861878,96.8,,15998.400000000001,,
309,722857,WALHALLA MUNICIPAL AIRPORT,ND,48.941,-97.903,-32.8,35.39277108433735,93.2,,16198.38,,
310,722320,BATON ROUGE METRO RYAN FIELD,LA,30.537,-91.147,19.0,68.02931506849315,99.0,,113.84,,
311,720447,KYLE OAKLEY FIELD AIRPORT,KY,36.665,-88.373,-5.8,58.659726027397255,100.4,,0.0,,
312,703888,SHAKTOOLIK AIRPORT,AK,64.37,-161.224,-22.0,28.54191616766467,79.0,,7.5299999999999985,,
313,998435,OGDENSBURG,NY,44.703,-75.495,-17.0,46.37514792899408,88.7,,0.0,,
314,720771,COLEMAN MUNICIPAL AIRPORT,TX,31.841,-99.404,10.2,67.9106017191977,108.3,,2213.59,,
315,720768,LEE COUNTY AIRPORT,VA,36.654,-83.218,-0.4,56.23213213213214,95.0,,12798.72,,
316,725061,OTIS ANGB AIRPORT,MA,41.65,-70.517,-4.0,52.25205479452055,93.2,,25797.419999999995,,
317,720747,ELK MOUNTAIN,WY,41.733,-106.467,-23.8,46.097942386831285,91.4,,0.0,,
318,998429,NOKOLSKI,AK,52.941,-168.871,18.5,41.52485875706215,57.4,,0.0,,
319,998426,HATTERAS,NC,35.208,-75.703,23.0,64.8607242339833,86.2,,0.0,,
320,720712,HENRY TIFT MYERS AIRPORT,GA,31.429,-83.489,23.9,68.96614785992217,102.0,,10998.9,,
321,722720,BISBEE DOUGLAS INTL ARPT,AZ,31.458,-109.606,17.1,47.73235294117647,78.1,,2.49,,
322,723290,CAPE GIRARDEAU RGNL ARPT,MO,37.225,-89.571,-5.1,57.81397260273973,100.0,,287.2599999999999,,
323,724270,OAK RIDGE,TN,36.023,-84.234,3.0,59.35232876712329,99.0,,185.31000000000003,,
324,724770,EUREKA,NV,39.601,-116.006,-13.0,46.90769230769231,98.1,,17.86,,
325,724950,BUCHANAN FIELD AIRPORT,CA,37.992,-122.055,28.0,60.96575342465753,111.9,,15.700000000000003,,
326,725850,HAYWARD EXECUTIVE AIRPORT,CA,37.654,-122.115,35.1,58.187123287671234,106.0,,11.41,,
327,726560,PIERRE REGIONAL AIRPORT,SD,44.381,-100.286,-18.0,47.051388888888894,108.0,750.2999999999998,61.439999999999976,,
328,726690,RAWLINS MUNI/HARVEY FIELD ARP,WY,41.8,-107.2,-24.0,44.334890109890104,96.1,,12.6,,
329,727570,GRAND FORKS INTERNATIONAL AIR,ND,47.943,-97.184,-36.9,38.985989010989016,100.0,2054.7999999999997,45.61999999999999,1.0,1.0
330,727870,DEER PARK AIRPORT,WA,47.974,-117.429,-14.1,45.969315068493145,102.0,,41.699999999999996,,
331,747930,VERO BEACH MUNICIPAL AIRPORT,FL,27.651,-80.42,28.0,74.46219178082193,98.1,,83.16,,
332,726070,BANGOR INTERNATIONAL ARPT,ME,44.798,-68.819,-17.0,47.22383561643836,93.0,818.4,102.06000000000002,,
333,998425,CORDOVA,AK,60.557,-145.755,12.9,42.754366197183096,68.0,,0.0,,
334,998427,KODIAK ISLAND,AK,57.73,-152.514,11.5,43.30788732394366,73.4,,0.0,,
335,998431,UNALASKA,AK,53.879,-166.54,20.8,45.81282051282051,73.0,,0.0,,
336,720744,PICKENS COUNTY AIRPORT,SC,34.817,-82.7,6.1,60.174309392265194,99.3,,7069.479999999999,,
337,998409,ANNAPOLIS,MD,38.983,-76.48,7.7,57.76796657381616,95.5,,0.0,,
338,720549,CARSON AIRPORT,NV,39.183,-119.733,10.4,52.85944444444445,102.2,,6699.329999999999,,
339,998339,MOUTH OF BLACK RIVER,MI,42.975,-82.419,3.7,50.403324099722994,95.2,,0.0,,
340,746410,GAGE AIRPORT,OK,36.297,-99.769,-7.1,59.60779944289693,114.1,,32.99999999999999,,
341,998407,HOLLAND,MI,42.768,-86.201,4.6,49.088125,84.0,,0.0,,
342,720742,FAITH RANCH AIRPORT,TX,28.209,-100.019,19.4,73.11263736263737,107.6,,1.4200000000000004,,
343,720741,BOULDER MUNICIPAL AIRPORT,NV,35.947,-114.861,24.8,68.41005747126437,111.2,,2299.77,,
344,722704,BIGGS AAF / FT BLISS TEXAS US,TX,31.85,-106.38,13.1,65.3076712328767,105.8,,109.10000000000002,,
345,720737,CARRINGTON MUNICIPAL AIRPORT,ND,47.451,-99.151,-25.6,39.95096418732782,95.0,,16398.36,,
346,720738,THOMASVILLE REGIONAL AIRPORT,GA,30.902,-83.881,19.4,65.8786301369863,100.4,,15698.429999999998,,
347,720736,FULTON COUNTY AIRPORT,IN,41.066,-86.182,-9.4,50.81025641025641,95.0,,18698.129999999997,,
348,720426,INDEPENDENT MUNICIPAL AIRPORT,KS,37.158,-95.778,-5.1,58.11039325842697,108.7,,3124.6800000000003,,
349,720729,BRAZOS 451 OILP              ,TX,28.5,-95.716,24.8,73.37863013698627,93.2,,0.0,,
350,720498,CHESTERFIELD COUNTY AIRPORT,VA,37.4,-77.517,6.1,56.14689265536723,95.0,,1225.64,,
351,720734,NAMPA MUNICIPAL AIRPORT,ID,43.581,-116.523,-4.0,51.84723756906077,104.0,,0.0,,
352,720717,WEST DELTA 27A               ,MS,29.117,-89.55,-18.4,48.75116279069768,80.6,,0.0,,
353,720724,BELEN RGNL ARPT,NM,34.646,-106.836,0.0,55.98888888888889,102.2,,2206.4,,
354,720714,PAULDING NORTHWEST ATLANTA AI,GA,33.912,-84.941,5.0,60.030410958904106,95.0,,15298.47,,
355,720565,HEBER CITY MUNICIPAL AIRPORT,UT,40.482,-111.429,-13.0,44.75487465181058,100.4,,11898.809999999998,,
356,720528,CENTRAL COLORADO REGIONAL AP,CO,38.698,-106.07,-29.2,44.12328767123288,89.8,,14598.540000000003,,
357,994065,TAWAS CITY GLOS WEATHER STATI,MI,44.256,-83.443,-1.5,45.80824175824175,86.9,,0.0,,
358,994066,WHITEFISH POINT GLOS WEATHER,MI,46.762,-84.966,-8.3,40.62575342465754,86.5,,0.0,,
359,998268,TENAKEE SPRINGS,AK,57.783,-135.217,10.6,44.90964187327824,78.6,,0.0,,
360,720713,DARKE COUNTY AIRPORT,OH,40.204,-84.532,-4.0,51.16456043956044,95.0,,17098.289999999997,,
361,720701,OSCEOLA MUNICIPAL AIRPORT,IA,41.052,-93.689,-11.4,50.813186813186825,98.2,,10039.619999999997,,
362,720533,BOULDER MUNICIPAL AIRPORT,CO,40.033,-105.217,-13.0,51.96638888888889,100.4,,9003.689999999999,,
363,720674,WEST GEORGIA REGIONAL AIRPORT,GA,33.633,-85.15,5.4,58.802285714285716,93.2,,13498.65,,
364,723745,PAYSON AIRPORT,AZ,34.257,-111.339,17.6,58.544657534246575,98.6,,10398.959999999997,,
365,744214,MARION MUNICIPAL AP,IN,40.483,-85.683,-11.7,50.70164835164836,94.1,,20810.93999999999,,
366,720436,ATKINSON MUNICIPAL AIRPORT,KS,37.45,-94.733,-6.0,57.48607242339833,104.2,,1725.5499999999997,,
367,720671,JESUP WAYNE COUNTY AIRPORT,GA,31.554,-81.883,21.2,67.57961432506887,104.0,,27997.199999999997,,
368,998252,BAR HARBOR,ME,44.4,-68.2,-1.3,47.891922005571026,88.5,,0.0,,
369,998255,MACKINAW CITY,MI,45.783,-84.717,-7.4,43.192857142857136,84.4,,0.0,,
370,998264,LAKE CHARLES,LA,30.217,-93.217,16.9,69.38435754189945,98.1,,0.0,,
371,998266,STURGEON POINT,NY,42.683,-79.05,2.3,49.1590027700831,85.3,,0.0,,
372,998281,FAIRPORT,OH,41.767,-81.283,-2.0,51.885028248587574,91.2,,0.0,,
373,998405,MANISTEE HARBOR,MI,44.248,-86.346,1.2,47.42534818941505,89.6,,0.0,,
374,998258,KETCHIKAN,AK,55.333,-131.625,10.6,46.30842696629213,76.5,,0.0,,
375,998259,SKAGWAY,AK,59.45,-135.318,-2.9,43.06480446927374,84.0,,0.0,,
376,998261,JUNEAU,AK,58.298,-134.412,4.5,42.965070422535206,82.9,,0.0,,
377,998265,MARCUS HOOK,PA,39.817,-75.417,7.7,56.77857142857142,94.3,,0.0,,
378,998271,VALDEZ,AK,61.133,-146.367,1.4,39.38407821229051,71.8,,0.0,,
379,998254,KING COVE,AK,55.067,-162.333,10.9,41.556302521008405,60.8,,0.0,,
380,998340,SANTA BARBARA,CA,34.408,-119.658,40.8,59.9335164835165,91.4,,0.0,,
381,998209,DUCK PIER,NC,36.183,-75.75,16.5,62.33072625698324,91.4,,0.0,,
382,998341,PORT ALEXANDER,AK,56.247,-134.647,16.7,45.03408450704225,77.0,,0.0,,
383,997355,VIRGINIA KEY,FL,25.73,-80.15,44.2,80.36148867313918,99.7,,0.0,,
384,998184,PORT ARANSAS,TX,27.833,-97.067,21.6,71.70252100840337,88.7,,0.0,,
385,998243,SAND POINT,AK,55.333,-160.5,10.9,42.016949152542374,62.4,,0.0,,
386,998172,LINCOLN ROCK,AK,56.05,-132.7,13.6,47.16978021978023,74.5,,0.0,,
387,720665,MAGNOLIA OIL PLATFORM,LA,27.2,-92.2,50.0,76.78328267477202,96.8,,0.0,,
388,720669,GUNNISON OIL PLATFORM,TX,27.3,-93.533,44.6,75.66891495601175,93.2,,0.0,,
389,720668,EAST BREAKS OIL PLATFORM,TX,27.817,-94.317,44.6,66.309,80.6,,0.0,,
390,749171,TEHACHAPI MUNICIPAL AIRPORT,CA,35.135,-118.439,17.6,57.37352941176471,100.4,,10998.9,,
391,720532,HARRIET ALEXANDER FIELD AIRPO,CO,38.533,-106.05,-14.3,47.172602739726024,90.7,,0.0,,
392,720659,OZONA MUNICIPAL AIRPORT,TX,30.735,-101.203,12.2,63.82658227848101,105.8,,7099.289999999999,,
393,720672,FLAGLER COUNTY EXECUTIVE AIRP,FL,29.467,-81.206,24.8,70.49640883977901,98.6,,4908.079999999999,,
394,722928,MCOLF CAMP PENDLETON RED BEAC,CA,33.286,-117.456,42.1,63.14404761904762,97.0,,400.8999999999999,,
395,720539,STEVENS FIELD AIRPORT,CO,37.283,-107.05,-12.1,45.21208791208792,90.1,,19398.059999999994,,
396,720652,BRIDGEPORT SONORA JUNCTION,CA,38.356,-119.519,-11.0,44.69138888888889,93.0,,28.320000000000007,,
397,720655,CRYSTAL RIVER AIRPORT,FL,28.867,-82.567,23.0,70.53583815028901,98.6,,14398.559999999998,,
398,724737,INVERNESS AIRPORT,FL,28.817,-82.317,24.8,70.0509589041096,96.8,,16798.32,,
399,720648,AUSTIN EXECUTIVE AIRPORT,TX,30.395,-97.567,14.0,67.45672514619882,104.0,,112.14,,
400,720649,HALIFAX NORTHAMPTON REGIONAL,NC,36.33,-77.635,10.4,57.41232876712329,98.6,,13598.639999999998,,
401,720651,UNION COUNTY AIRPORT,OH,40.225,-83.352,-3.3,51.54848484848485,94.3,,10.28,,
402,720647,LAMPASAS AIRPORT,TX,31.106,-98.196,10.9,67.314364640884,105.3,,17.73,,
403,720646,HALF MOON BAY AIRPORT,CA,37.513,-122.501,28.4,53.85906593406593,86.0,,5499.449999999999,,
404,720643,FOREST CITY MUNICIPAL AIRPORT,IA,43.235,-93.624,-22.0,44.360773480662985,95.0,,28197.179999999993,,
405,720645,PLACERVILLE AIRPORT,CA,38.717,-120.75,26.6,61.06767123287671,107.6,,0.0,,
406,723758,RUSK COUNTY AIRPORT,WI,45.497,-91.001,-27.8,42.46418732782369,92.5,,14244.88,,
407,720639,HORSESHOE BAY RESORT AIRPORT,TX,30.533,-98.367,13.5,68.8182320441989,106.7,,112.43000000000002,,
408,720637,HOUSTON SOUTHWEST AIRPORT,TX,29.5,-95.477,18.3,68.41655844155844,104.9,,3821.55,,
409,720638,BEND MUNICIPAL AIRPORT,OR,44.095,-121.2,1.4,50.54297520661157,105.8,,12398.759999999998,,
410,720636,CLINTON MEMORIAL AIRPORT,MO,38.35,-93.683,-5.8,55.668767123287665,98.6,,32596.739999999987,,
411,720614,LINCOLN REGIONAL AIRPORT KARL,CA,38.909,-121.351,21.2,60.66520547945205,113.0,,0.0,,
412,722274,CENTERVILLE MUNICIPAL AIRPORT,IA,40.684,-92.901,-13.0,40.808433734939754,96.8,,7499.249999999999,,
413,720613,CONWAY HORRY COUNTY AIRPORT,SC,33.828,-79.122,17.6,62.642465753424666,95.0,,14798.52,,
414,747918,GEORGETOWN COUNTY AIRPORT,SC,33.317,-79.317,17.6,63.72849315068494,96.8,,13598.64,,
415,720635,H A CLARK MEMORIAL FIELD AIRP,AZ,35.3,-112.2,-2.2,49.98547945205479,93.2,,10098.990000000002,,
416,720619,FRANCIS E WARREN AFB HELIPORT,WY,41.133,-104.867,-23.4,46.16360759493671,98.6,77.3,2801.4199999999996,,1.0
417,720634,FAIRFIELD COUNTY AIRPORT,SC,34.315,-81.109,12.2,62.265753424657525,98.6,,13598.640000000001,,
418,723126,SPARTANBURG DOWNTOWN MEM,SC,34.916,-81.957,10.4,60.06880222841225,98.6,,27197.279999999995,,
419,720631,MARLBORO COUNTY JETPORT H E A,SC,34.617,-79.733,15.8,61.757024793388425,96.8,,24797.519999999997,,
420,720629,JACK BARSTOW AIRPORT,MI,43.663,-84.261,-11.2,48.271153846153844,98.1,,9113.970000000001,,
421,720632,SUMMERVILLE AIRPORT,SC,33.063,-80.279,15.8,65.62219178082191,98.6,,13398.659999999998,,
422,720633,HARTSVILLE REGIONAL AIRPORT,SC,34.4,-80.117,12.2,62.57561643835616,98.6,,12698.730000000001,,
423,720626,PAMPA MESA VISTA AIRPORT,TX,35.883,-101.033,1.4,62.26332288401254,111.2,,11198.879999999996,,
424,720628,CLARENCE E PAGE MUNICIPAL AIR,OK,35.483,-97.817,1.4,60.76730769230769,107.6,,23197.679999999997,,
425,725253,PORTAGE COUNTY AIRPORT,OH,41.217,-81.25,-10.5,49.80465753424657,95.0,,0.0,,
426,720624,MADISON MUNICIPAL AIRPORT,SD,44.016,-97.086,-20.2,43.451002865329514,98.6,,16798.32,,
427,720627,STIGLER REGIONAL AIRPORT,OK,35.283,-95.1,1.4,62.10465753424658,109.4,,9899.01,,
428,720625,BLACKWELL TONKAWA MUNICIPAL A,OK,36.75,-97.35,3.2,62.864257028112455,111.2,,7899.21,,
429,723756,SEDONA AIRPORT,AZ,34.85,-111.783,23.0,61.746575342465746,104.0,,19997.999999999996,,
430,701338,CHEVAK AIRPORT,AK,61.533,-165.583,-22.0,30.295072463768115,78.1,,6399.359999999998,,
431,720617,HOUSTON EXECUTIVE AIRPORT,TX,29.8,-95.9,19.4,70.05534246575341,105.8,,10798.92,,
432,749179,HOLLISTER MUNICIPAL AIRPORT,CA,36.9,-121.417,26.6,57.90164383561645,111.2,,0.0,,
433,749230,TELLER AIRPORT,AK,65.233,-166.35,-24.0,29.863461538461546,70.0,,216.35999999999999,,
434,720479,MONETT MUNICIPAL AIRPORT,MO,36.9,-94.017,-5.8,56.70329670329671,104.0,,12498.749999999998,,
435,720589,SHAWANO MUNICIPAL AIRPORT,WI,44.783,-88.55,-14.4,46.106301369863004,95.2,,12240.859999999997,,
436,720616,BRANSON AIRPORT,MO,36.533,-93.2,-4.0,57.93643835616438,102.2,,9899.009999999998,,
437,701337,WALES AIRPORT,AK,65.617,-168.1,-29.9,30.581854838709674,66.9,,6299.399999999998,,
438,720615,COLUMBIA AIRPORT,CA,38.033,-120.417,23.0,60.081095890410964,111.2,,0.0,,
439,720612,BEAUFORT COUNTY AIRPORT,SC,32.412,-80.634,19.4,66.54505494505496,96.8,,14198.580000000002,,
440,722866,SAN BERNARDINO INTL,CA,34.095,-117.235,31.5,66.90438356164384,111.2,,7799.219999999998,,
441,720577,RUSK COUNTY AIRPORT,TX,32.15,-94.85,12.2,68.27086834733892,106.9,,7660.8600000000015,,
442,720601,AIKEN MUNICIPAL AIRPORT,SC,33.65,-81.683,10.9,63.52115384615385,101.8,,2541.2999999999993,,
443,720602,BARNWELL REGIONAL AIRPORT,SC,33.25,-81.383,12.2,64.72931506849316,100.4,,13798.619999999999,,
444,720605,CHERAW MUNICIPAL LYNCH BELLIN,SC,34.717,-79.95,14.0,62.82054794520549,100.4,,6199.379999999998,,
445,720611,SUMTER AIRPORT,SC,34.0,-80.367,14.0,63.885479452054796,98.6,,8699.13,,
446,720596,NEWBERRY COUNTY AIRPORT,SC,34.3,-81.633,10.4,63.49567723342939,98.6,,11498.849999999999,,
447,720597,LAURENS COUNTY AIRPORT,SC,34.5,-81.95,10.4,60.91369863013699,98.6,,13298.669999999998,,
448,720598,BERKELEY COUNTY AIRPORT,SC,33.183,-80.033,17.6,63.951780821917815,95.0,,13998.599999999999,,
449,720599,CHESTER CATAWBA REGIONAL AIRP,SC,34.783,-81.2,10.4,60.996121883656514,96.8,,12398.76,,
450,720603,WOODWARD FIELD AIRPORT,SC,34.283,-80.567,12.2,63.245205479452046,100.4,,13398.659999999998,,
451,720604,WILLIAMSBURG REGIONAL AIRPORT,SC,33.717,-79.85,17.6,62.97707182320442,96.8,,14498.55,,
452,720607,LANCASTER COUNTY MC WHIRTER F,SC,34.717,-80.85,10.4,62.10909090909092,98.6,,13098.690000000002,,
453,720608,MARION COUNTY AIRPORT,SC,34.181,-79.335,17.6,62.46876712328767,96.8,,13698.63,,
454,720576,UNIVERSITY AIRPORT,CA,38.533,-121.783,26.6,61.36573033707865,111.2,,0.0,,
455,720405,BLAIR MUNICIPAL AIRPORT,NE,41.412,-96.109,-16.1,50.69585635359117,101.3,,10027.86,,
456,720411,ANGEL FIRE AIRPORT,NM,36.422,-105.29,-30.3,40.54178674351585,85.3,,12219.179999999998,,
457,720412,PERRY MUNICIPAL AIRPORT,IA,41.828,-94.16,-13.0,46.80032051282052,102.4,,7837.1,,
458,720448,STUART POWELL FIELD AIRPORT,KY,37.578,-84.77,-0.4,54.07052023121388,95.0,,28797.119999999995,,
459,720492,CALEDONIA COUNTY AIRPORT,VT,44.567,-72.017,-22.0,42.75258620689656,90.7,,44195.57999999999,,
460,720493,NEWPORT AP,VT,44.883,-72.233,-26.0,44.26849315068494,88.7,,45195.47999999998,,
461,720501,TAPPAHANNOCK ESSEX COUNTY AIR,VA,37.85,-76.883,6.4,56.75431034482758,96.3,,6055.1799999999985,,
462,720541,OXFORD UNIV,MS,34.383,-89.55,1.4,60.94082191780822,96.8,,18598.139999999996,,
463,720542,LAGO VISTA RUSTY ALLEN AIRPOR,TX,30.5,-97.967,11.1,68.38567493112949,109.4,,226.04,,
464,720543,DE KALB COUNTY AIRPORT,IN,41.3,-85.067,-7.6,49.4546218487395,95.0,,37796.21999999999,,
465,720545,CHESTER AIRPORT,CT,41.384,-72.506,3.2,53.20986301369863,95.0,,33396.65999999999,,
466,720584,ZAPATA COUNTY AIRPORT,TX,26.967,-99.25,20.1,76.79429429429429,111.0,,5618.919999999998,,
467,720586,PLATTEVILLE MUNICIPAL AIRPORT,WI,42.683,-90.45,-17.1,47.53104395604396,96.3,,44.18,,
468,720592,H L SONNY CALLAHAN AIRPORT,AL,30.46,-87.877,21.2,62.801886792452834,96.8,,19997.999999999996,,
469,720593,STARKE COUNTY AIRPORT,IN,41.333,-86.667,-9.4,47.35242424242424,96.8,,0.0,,
470,720594,HOUSTON DUNN HELISTOP,TX,29.717,-95.383,15.8,70.43994490358128,102.2,,12198.779999999997,,
471,722231,HAMILTON MUNICIPAL AIRPORT,TX,31.666,-98.149,11.3,68.31546961325968,107.2,,418.3,,
472,720413,POSEY FIELD AIRPORT,AL,34.267,-87.6,1.0,60.46556473829201,97.0,,3102.08,,
473,720414,KNOX COUNTY AIRPORT,OH,40.333,-82.517,-7.6,51.0027397260274,93.2,,38596.139999999985,,
474,720415,FREMONT MUNICIPAL AIRPORT,MI,43.433,-86.0,-6.9,48.38219178082193,91.9,,40395.959999999985,,
475,720578,STEPHENS COUNTY AIRPORT,TX,32.717,-98.892,11.3,67.20145772594752,111.2,,228.2,,
476,720587,ABBEVILLE CHRIS CRUSTA MEMORI,LA,29.976,-92.084,19.9,68.48253521126759,97.0,,10655.540000000003,,
477,722691,CLAXTON EVANS COUNTY AIRPORT,GA,32.2,-81.87,19.8,66.8627397260274,102.4,,32596.73999999999,,
478,722692,WARRENTON FAUQUIER AIRPORT,VA,38.586,-77.711,7.2,56.165181058495826,97.3,,7046.36,,
479,723107,SANTEE COOPER REGIONAL AIRPOR,SC,33.587,-80.209,15.8,62.534285714285716,96.8,,66393.35999999994,,
480,747917,MT PLEASANT REGIONAL AIRPORT,SC,32.9,-79.783,17.6,66.14958448753464,98.6,,26997.299999999996,,
481,704890,DUTCH HARBOR AIRPORT,AK,53.895,-166.543,15.1,42.40164383561643,73.9,47.8,20440.499999999996,,
482,722520,LAREDO INTERNATIONAL AIRPORT,TX,27.533,-99.467,24.1,74.30027472527473,109.9,,47.82,,
483,998235,NIAGRA INTAKE,NY,43.067,-79.017,2.5,49.83833333333333,86.2,,0.0,,
484,998242,SAGINAW BAY LIGHT 1          ,MI,43.8,-83.717,0.3,47.94055555555556,87.1,,0.0,,
485,998245,WILLOUGHBY DEGUASSING STATION,VA,36.983,-76.317,12.6,64.87878787878786,92.7,,0.0,,
486,998236,PACKERY CHANNEL,TX,27.633,-97.233,23.7,72.16927374301676,88.9,,0.0,,
487,998221,ALITAK,AK,56.9,-154.25,9.5,42.58507042253522,64.0,,0.0,,
488,998224,ATKA,AK,52.233,-174.167,21.4,42.29691011235955,62.2,,0.0,,
489,998226,ROCKPORT,TX,28.017,-97.05,21.4,71.98016759776536,96.8,,0.0,,
490,998217,AMERADA PASS,LA,29.45,-91.333,26.8,72.42222222222222,101.8,,0.0,,
491,998218,SHELL BEACH,LA,29.867,-89.667,24.8,70.25167597765363,95.9,,0.0,,
492,998219,BAY WAVELAND YACHT CLUB,MS,30.317,-89.317,34.2,74.9967359050445,99.9,,0.0,,
493,998225,PORT ARTHUR,TX,29.867,-93.933,18.0,70.05926966292134,94.5,,0.0,,
494,998216,CHAMBERS ISLAND,WI,45.2,-87.35,0.7,48.98402777777778,84.7,,0.0,,
495,998211,OCEAN CITY INLET,MD,38.317,-75.083,15.3,56.71476323119777,88.5,,0.0,,
496,720579,LAJITAS INTL ARPT,TX,29.278,-103.687,19.4,67.3014388489209,105.8,,0.0,,
497,701196,BOB BARKER MEMORIAL AIRPORT,AK,66.983,-160.433,-43.1,25.259217877094972,77.0,,221.42000000000004,,
498,998208,LAKE WATEREE,SC,34.333,-80.7,12.7,63.347397260273986,100.2,,0.0,,
499,998206,ELFIN COVE,AK,58.183,-136.333,12.6,43.32203389830509,76.1,,0.0,,
500,722813,PIONEER AIRFIELD,AZ,31.607,-110.428,19.9,62.29397260273973,99.0,,118.35000000000001,,
501,997848,GARDEN BANKS 426 - AUGER     ,LA,27.55,-92.49,43.0,74.97261146496815,102.4,,2534.08,,
502,998203,WEST NEEBISH,MI,46.283,-84.2,-23.1,41.57465564738292,85.1,,0.0,,
503,998191,HILO,HI,19.717,-155.05,62.1,73.58851540616246,85.8,,0.0,,
504,998195,NAWILIWILI,HI,21.95,-159.35,59.9,75.06536312849161,83.5,,0.0,,
505,998196,MOBILE STATE DOCKS,AL,30.7,-88.033,20.8,69.0877094972067,102.7,,0.0,,
506,998193,MOKUOLOE,HI,21.433,-157.783,66.0,76.71294765840221,86.5,,0.0,,
507,998194,NEW CANAL,LA,30.017,-90.117,26.1,70.30868347338937,95.7,,0.0,,
508,998204,WESTPORT,WA,46.917,-124.117,23.9,49.88732782369146,84.4,,0.0,,
509,998192,COAST GUARD SECTOR,AL,30.65,-88.05,20.5,68.32430167597767,98.6,,0.0,,
510,722239,LOWE ARMY HELIPORT (FORT RUCK,AL,31.356,-85.751,14.0,65.07944444444445,100.2,,854.06,,
511,720494,FRANKLIN COUNTY STATE AIRPORT,VT,44.933,-73.1,-20.6,47.70469613259669,93.6,,20197.98,,
512,997342,MILWAUKEE,WI,43.05,-87.88,-8.5,47.584890109890104,97.0,,0.0,,
513,997359,ALPENA,MI,45.067,-83.417,-6.7,44.98736263736263,90.9,,0.0,,
514,722368,THOMAS P STAFFORD,OK,35.55,-98.667,1.9,60.95694444444444,111.0,,4848.32,,
515,994045,APPALACHICOLA,FL,29.73,-84.98,22.3,69.56452513966482,95.7,,0.0,,
516,994973,N PIER  DEATHS DOOR,WI,45.28,-86.98,-5.3,44.58757763975156,91.9,,0.0,,
517,998175,CAL POLY PIER,CA,35.167,-120.733,40.3,56.08,79.2,,0.0,,
518,726392,SUNLIGHT MTN,CO,39.43,-107.38,-9.4,34.00828729281768,75.2,,35596.43999999999,,
519,997799,SISTERS ISLAND,AK,58.167,-135.25,12.9,46.064835164835166,72.7,,0.0,,
520,997306,SPRINGMAID PIER,SC,33.65,-78.92,18.0,69.63256704980843,93.2,,0.0,,
521,997271,THE BATTERY,NY,40.701,-74.014,9.1,55.83537604456825,94.5,,0.0,,
522,998177,LAKE MURRAY,SC,34.1,-81.267,13.8,65.01452054794521,98.1,,0.0,,
523,998176,SUPERIOR GRAND TRAVERSE BAY,MI,47.183,-88.233,-16.6,40.18919667590028,90.1,,0.0,,
524,998179,OLD WOMEN CREEK,OH,41.383,-82.5,-4.9,51.26537396121884,95.7,,11.990000000000002,,
525,998180,PORT SANILAC,MI,43.417,-82.533,2.8,43.95162790697675,93.4,,0.0,,
526,998178,BARTLET COVE,AK,58.45,-135.883,10.6,43.853125000000006,76.5,,0.0,,
527,998182,ROLLOVER PASS,TX,29.517,-94.5,18.1,69.45614525139663,91.0,,0.0,,
528,998183,SOUTH BIRD ISLAND,TX,27.483,-97.317,25.0,72.29131652661067,90.3,,0.0,,
529,998185,SEADRIFT,TX,28.4,-96.717,18.0,71.44845070422537,93.9,,0.0,,
530,994977,GRAND ISLE,LA,29.27,-89.95,27.1,76.13565217391303,91.8,,0.0,,
531,724462,HOUSTON CO,TX,31.307,-95.404,10.4,67.18135048231511,105.8,,22997.699999999993,,
532,997789,ELDRED ROCK,AK,58.967,-135.217,8.2,43.816208791208794,79.5,,0.0,,
533,997339,MICHIGAN CITY,IN,41.73,-86.93,-2.4,51.08520547945206,94.1,,0.0,,
534,997737,SILVER BAY,MN,47.27,-91.08,-14.8,38.604383561643836,84.4,,0.0,,
535,997738,SAXON HARBOR,WI,46.57,-90.43,-17.3,42.146027397260276,97.5,,0.0,,
536,997288,QUONSET POINT,RI,41.58,-71.4,7.0,53.12311977715878,87.4,,0.0,,
537,703055,MANOKOTAK,AK,58.99,-159.05,-9.0,41.23670886075949,78.1,,439.6999999999999,,
538,726391,COTTONWOOD PASS,CO,38.78,-106.22,-5.8,42.545479452054785,82.4,,35396.459999999985,,
539,997732,PORTAGE CANAL,MI,47.27,-88.53,20.8,37.26923076923077,66.9,,0.0,,
540,998168,NIAGARA CG STATION,NY,43.267,-79.067,59.2,73.0794117647059,87.3,,0.0,,
541,997703,PILOT STATION EAST,LA,28.92,-89.4,30.6,72.7866295264624,96.6,,0.0,,
542,997734,TIBURON PIER,CA,37.92,-122.45,39.2,57.2209726443769,96.8,,0.0,,
543,998165,MISSION ARANASAS RESERVE,TX,28.133,-97.033,28.2,70.27892976588628,91.0,,13.729999999999999,,
544,997370,MORGANS POINT,TX,29.68,-94.98,18.1,70.06424581005585,100.6,,0.0,,
545,702625,NIKOLAI,AK,63.02,-154.36,-41.8,30.862996941896025,84.2,,2430.9,,
546,702628,MARSHALL DON HUNTER SR,AK,61.864,-162.026,-24.0,34.463976945244966,81.0,,23.820000000000004,,
547,702686,AKIAK,AK,60.903,-161.231,-20.0,34.4279761904762,75.9,,12201.679999999998,,
548,702697,NEW STUYAHOK,AK,59.45,-157.33,-27.9,35.74460227272726,81.0,,42.68,,
549,703054,SCAMMON BAY,AK,61.845,-165.571,-18.9,37.21594827586206,73.9,,19198.079999999994,,
550,703925,KOLIGANEK,AK,59.73,-157.26,-17.0,35.83475783475784,81.0,,4837.68,,
551,720254,CHEHALIS CENTRALIA,WA,46.677,-122.983,-36.4,51.063142857142864,96.8,,35596.43999999999,,
552,720333,CORONA MUNI,CA,33.9,-117.6,26.6,65.3895890410959,106.0,,7.76,,
553,720334,MONTGOMERY CO AIRPARK,MD,39.168,-77.166,3.0,55.21561643835617,97.0,,900.7799999999997,,
554,720339,RYAN FLD,AZ,32.142,-111.175,21.2,71.1787356321839,107.6,,4599.54,,
555,720367,PAYNESVILLE MUNI,MN,45.372,-94.747,-29.2,41.84478021978022,98.6,,31796.819999999996,,
556,720377,NEWPORT MUNI,AR,35.638,-91.176,0.0,59.754395604395604,100.0,,91.92000000000002,,
557,720378,NEW CASTLE MUNI,PA,41.025,-80.413,-11.9,50.22109589041096,93.9,,271.61999999999995,,
558,720382,ST MICHAEL,AK,63.49,-162.11,-20.9,31.2412429378531,80.1,,18598.620000000003,,
559,720385,BERTHOUD PASS,CO,39.8,-105.767,-16.6,25.303641456582636,60.8,,18798.12,,
560,720388,PUYALLUP THUN FIELD,WA,47.1,-122.283,14.0,51.535812672176306,96.8,,47595.23999999997,,
561,720391,BEEVILLE MUNI,TX,28.35,-97.717,19.4,69.82794520547945,103.6,,8615.72,,
562,720392,HOMERVILLE,GA,31.056,-82.774,18.5,67.06281690140845,102.7,,25597.440000000002,,
563,720393,HEREFORD MUNI,TX,34.858,-102.326,-2.6,59.76406685236769,108.7,,7206.859999999999,,
564,720395,PLEASANTON MUNI,TX,28.954,-98.52,19.0,71.67713498622591,109.4,,223.89999999999995,,
565,720397,OHIO UNIVERSITY SNYDER FLD,OH,39.211,-82.231,-3.1,54.37252747252747,94.1,,29821.76,,
566,720401,CLINTON MUNI,AR,35.6,-92.45,-0.4,58.626575342465756,104.0,,28811.899999999994,,
567,720404,KICKAPOO DOWNTOWN AIRPORT,TX,33.85,-98.483,9.9,62.88270440251573,113.0,,7614.419999999999,,
568,720407,ROBERT J MILLER AIRPARK,NJ,39.933,-74.3,3.0,40.14714285714285,77.0,,2805.1399999999994,,
569,720408,COATESVILLE/CARLSON AIRPORT,PA,39.983,-75.867,3.2,53.59171270718232,91.4,,34196.57999999999,,
570,722218,CAMBRIDGE DORCHESTER,MD,38.539,-76.03,12.2,57.433147632311986,95.0,,0.0,,
571,722261,OKEECHOBEE CO,FL,27.263,-80.85,30.2,73.41949860724235,95.0,,42795.71999999997,,
572,722291,PLATTSMOUTH MUNI,NE,40.95,-95.918,-13.9,51.82087912087913,99.7,,10028.779999999997,,
573,722331,IOWA FALLS MUNI,IA,42.467,-93.267,-16.2,47.28602739726027,95.7,,11839.259999999998,,
574,722367,WARRENSBURG,MO,38.783,-93.8,-5.8,54.84565826330532,98.6,,22797.72,,
575,725294,WADESBORO ANSON CO,NC,35.021,-80.077,11.1,61.28681318681319,98.6,,6067.08,,
576,703058,NELSON LAGOON,AK,56.01,-161.16,3.9,38.68313253012049,64.9,,20798.280000000002,,
577,720384,STEVENSVILLE,MD,38.967,-76.333,8.4,49.75296803652967,94.6,,7359.06,,
578,722369,INGLESIDE,TX,27.917,-97.2,22.8,72.8945205479452,97.3,,5599.439999999999,,
579,720409,BLAIRSVILLE AIRPORT,GA,34.85,-83.983,0.1,56.891712707182315,93.9,,1944.4999999999998,,
580,994012,CRESCENT CITY,CA,41.745,-124.183,33.1,51.522346368715084,78.3,,0.0,,
581,994036,RICHMOND,CA,37.928,-122.4,40.6,57.3873949579832,89.2,,0.0,,
582,994979,GRAVELLY SHOALS,MI,44.02,-83.53,2.8,46.819452054794525,86.4,,0.0,,
583,997283,NEW LONDON,CT,41.35,-72.08,6.6,53.04608938547485,90.3,,0.0,,
584,997286,PHILADELPHIA,PA,39.93,-75.0,7.2,58.097771587743736,100.9,,0.0,,
585,997293,MARBLEHEAD,OH,41.55,-82.9,-4.0,51.683241758241756,94.3,,0.0,,
586,997295,TOLEDO,OH,41.68,-83.4,-2.9,51.92774725274725,96.3,,0.0,,
587,997338,CHICAGO,IL,42.0,-87.5,-7.2,49.62630057803469,96.6,,0.0,,
588,997340,KENOSHA,WI,42.58,-87.8,-9.9,47.96082191780822,97.5,,0.0,,
589,997341,MUSKEGON,MI,43.23,-86.33,2.1,47.888767123287664,82.8,,0.0,,
590,997343,SOUTH HAVEN,MI,42.4,-86.28,5.7,49.74242424242425,90.9,,0.0,,
591,997344,TOLEDO LIGHT 2               ,OH,41.82,-83.18,8.2,51.70918032786886,87.4,,0.0,,
592,997692,CLEVELAND,OH,41.53,-81.63,-3.5,51.72527472527472,95.4,,0.0,,
593,997697,LITTLE RAPIDS,MI,46.48,-84.3,-19.3,41.89285714285715,88.2,,0.0,,
594,997698,NEWBOLD,PA,40.8,-74.75,7.7,56.00974930362117,95.7,,0.0,,
595,997731,GRAND TRAVERSE LIGHT,MI,45.2,-85.55,4.6,45.95302197802198,91.6,,0.0,,
596,997735,WAUKEGAN HARBOR,IL,42.35,-87.82,-9.2,46.54135802469137,97.0,,0.0,,
597,997736,PORT WASHINGTON,WI,43.38,-87.87,-8.1,46.74478021978022,97.3,,0.0,,
598,997739,GRAND MARAIS,MI,46.667,-85.967,-10.7,42.17643835616438,84.6,,0.0,,
599,997741,KEWAUNEE,WI,44.45,-87.483,-10.3,38.67414965986394,91.6,,0.0,,
600,997743,ROBBINS REEF,NJ,40.65,-74.067,7.5,55.44134078212291,95.4,,0.0,,
601,997785,MENOMINEE,MI,45.1,-87.583,-10.1,44.25247252747253,92.1,,0.0,,
602,997787,BURNS HARBOR,IN,41.65,-87.15,-3.1,51.31863013698629,94.5,,0.0,,
603,997788,CAPE DECISION,AK,56.0,-134.133,15.8,45.871030640668515,72.1,,0.0,,
604,997792,FAIRPORT,MI,45.617,-86.65,-5.3,43.0531506849315,82.2,,0.0,,
605,997793,NAUBINWAY,MI,46.083,-85.433,-11.4,42.02328767123287,80.6,,0.0,,
606,997795,ONTONAGON,MI,46.867,-89.333,-14.3,23.702380952380956,78.3,,0.0,,
607,997797,POINT RETREAT,AK,58.4,-134.95,12.2,43.95824175824175,78.1,,0.0,,
608,997802,BIG SABLE POINT,MI,44.05,-86.517,13.6,58.44477611940299,87.4,,0.0,,
609,997803,PORT WING,MI,46.783,-91.383,-15.7,39.60989010989012,93.7,,0.0,,
610,997804,CAPE SPENCER,AK,58.2,-136.633,12.9,43.288736263736276,72.3,,0.0,,
611,997982,PORT INLAND,MI,45.967,-85.867,-13.7,41.15579268292683,81.0,,0.0,,
612,997988,BIG BAY,MI,46.817,-87.717,-15.0,42.27335164835165,90.0,,0.0,,
613,997989,OLCOTT HARBOR,NY,43.333,-78.717,3.4,49.51564245810056,87.4,,0.0,,
614,997996,ST CLAIR SHORES,MI,42.467,-82.867,1.8,50.25232876712329,94.6,,0.0,,
615,998001,HURON LIGHT,OH,41.4,-82.55,-4.5,52.110410958904104,94.8,,0.0,,
616,998004,NARRAGANSETT BAY RESERVE,RI,41.633,-71.333,3.9,53.09201101928375,91.4,,17.62,,
617,998008,ROOKERY BAY RESERVE,FL,26.033,-81.7,30.6,74.65426997245179,95.7,,32.050000000000004,,
618,998009,ROCHESTER,NY,43.25,-77.583,2.7,50.128767123287666,90.0,,0.0,,
619,998012,ST JOSEPH,MI,42.1,-86.483,4.5,52.855161290322584,91.6,,0.0,,
620,998015,WELLS RESERVE,ME,43.333,-70.55,-4.7,49.17022471910113,91.9,,0.0,,
621,998173,MOSS LANDING S HARBOR,CA,36.8,-121.783,35.8,53.65333333333333,77.4,,0.0,,
622,994046,NANTUCKET ISLAND,MA,41.28,-70.1,13.6,53.64472222222222,85.8,,0.0,,
623,994971,BOSTON,MA,42.35,-71.05,4.8,54.07883008356546,95.4,,0.0,,
624,997364,GALVESTON PIER 21            ,TX,29.3,-94.78,20.5,71.41064425770307,92.3,,0.0,,
625,997372,REEDY POINT,DE,39.9,-75.57,7.7,56.36657381615599,96.6,,0.0,,
626,998016,WEEKS BAY RESERVE,AL,30.417,-87.833,20.1,67.26914600550964,98.2,,0.0,,
627,994011,ASTORIA,OR,46.208,-123.767,27.0,51.38603351955307,88.3,,0.0,,
628,994015,FRIDAY HARBOR,WA,48.547,-123.01,15.6,49.52286501377411,85.5,,0.0,,
629,994016,SAN FRANCISCO,CA,37.807,-122.465,40.5,54.75223463687151,93.0,,0.0,,
630,994018,LA JOLLA,CA,32.867,-117.258,44.8,62.5941340782123,91.4,,0.0,,
631,994023,PORT SAN LUIS,CA,35.177,-120.76,39.4,57.99469273743017,90.3,,0.0,,
632,994026,SOUTH BEACH,OR,44.625,-124.043,26.1,53.71212121212122,88.7,,0.0,,
633,994028,SANTA MONICA PIER,CA,34.008,-118.5,45.5,61.80698324022347,91.2,,0.0,,
634,994033,ALAMEDA,CA,37.772,-122.298,39.0,57.050700280112046,92.7,,0.0,,
635,994034,PORT CHICAGO,CA,38.057,-122.038,32.7,59.24390934844193,102.4,,0.0,,
636,994044,ARENA COVE,CA,38.92,-123.7,32.0,52.49803921568627,69.1,,0.0,,
637,997358,MAYPORT,FL,30.397,-81.43,25.7,70.43352272727275,98.2,,0.0,,
638,997781,COVE POINT,MD,38.717,-76.65,10.9,58.22997198879552,92.1,,0.0,,
639,997782,DOMINION TERMINAL ASSOCIATION,VA,36.967,-76.417,12.7,61.16518105849582,91.8,,0.0,,
640,994006,BIG CARLOS PASS,FL,26.4,-81.88,40.1,77.12352941176471,94.6,,0.0,,
641,994007,HONOLULU,HI,21.3,-157.87,66.0,76.8782122905028,86.2,,0.0,,
642,994047,PENSACOLA,FL,30.4,-87.22,20.1,69.88575418994414,99.1,,0.0,,
643,997294,POTTER COVE - PRUDENCE ISLAND,RI,41.637,-71.339,6.6,53.345682451253474,89.8,,0.0,,
644,997337,CALCASIEU PASS,LA,29.768,-93.343,19.0,69.83707865168539,93.6,,0.0,,
645,997381,ANCHORAGE,AK,61.23,-149.88,-6.7,38.72735042735044,73.8,,0.0,,
646,997688,BISHOPS HEAD,MD,38.22,-76.03,14.2,58.54958217270195,89.6,,0.0,,
647,997691,CAPE HENRY,VA,36.93,-76.02,12.4,61.29263456090652,94.8,,0.0,,
648,997693,S CRANEY ISLAND,VA,36.88,-76.33,12.4,61.979775280898885,97.2,,0.0,,
649,997695,JOHN MERCER PIER,NC,34.2,-77.83,20.8,65.07910863509748,93.2,,0.0,,
650,997696,LA PUSH,WA,47.92,-124.63,21.9,48.46859504132231,89.1,,0.0,,
651,997701,PORT MANATEE,FL,27.63,-82.57,34.9,72.81309192200557,92.3,,0.0,,
652,997704,RED DOG DOCK,AK,67.57,-164.65,-28.3,27.79689440993789,72.5,,0.0,,
653,997729,GALVESTON BAY N JETY,TX,29.35,-94.72,19.2,71.06340782122905,91.0,,0.0,,
654,997779,SHIP JOHN SHOAL,NJ,39.3,-75.367,9.9,56.505292479108626,91.2,,0.0,,
655,997993,GREAT BAY RESERVE,NH,43.05,-70.833,-4.7,49.43223140495867,95.9,,16.060000000000002,,
656,997994,CHESAPEAKE BAY,MD,38.767,-76.7,8.2,55.056473829201096,97.2,,18.690000000000005,,
657,997997,ELKHORN SLOUGH RESERVE,CA,36.817,-121.733,31.6,54.88236914600551,95.5,,4.85,,
658,998007,PADILLA BAY RESERVE,WA,48.467,-122.467,7.7,49.75702479338844,82.0,,9.66,,
659,998011,SAN FRANCISCO BAY RESERVE,CA,38.217,-122.017,26.4,59.26060606060606,104.0,,7.469999999999999,,
660,997384,MOLUOLOE,HI,20.9,-156.47,61.9,75.57206703910616,84.6,,0.0,,
661,997798,SOUTH DOUGLAS,AK,58.267,-134.433,8.1,43.99917582417582,81.0,,0.0,,
662,998000,GUANA TOLOMATO MATANZAS,FL,29.65,-81.217,24.3,70.38842975206612,100.4,,12.459999999999999,,
663,998005,NORTH INLET-WINYAH BAY,SC,33.35,-79.183,17.8,65.68402203856749,94.3,,22.98,,
664,998013,TIJUANA RIVER RESERVE,CA,32.575,-117.127,39.9,62.527900552486194,95.0,,5.38,,
665,994024,PORT ANGELES,WA,48.125,-123.44,16.0,48.843801652892566,83.5,,0.0,,
666,994025,PORT TOWNSEND,WA,48.112,-122.758,19.4,50.74748603351954,87.3,,0.0,,
667,994029,TOKE POINT,WA,46.708,-123.965,26.8,51.36694677871149,89.8,,0.0,,
668,997386,PRUDHOE BAY,AK,70.4,-148.52,-39.6,13.564655172413792,65.8,,0.0,,
669,997796,POINT BISHOP,AK,58.2,-134.133,4.3,42.52774725274726,75.4,,0.0,,
670,997990,ACE BASIN RESERVE,SC,32.55,-80.45,16.9,65.8489855072464,97.9,,25.490000000000002,,
671,997992,APALACHICOLA RESERVE,FL,29.783,-84.883,21.0,71.14833836858006,95.7,,0.95,,
672,998010,SAPELO ISLAND RESERVE,GA,31.417,-81.283,23.4,68.9206611570248,99.7,,14.91,,
673,998169,DELAWARE RESERVE,DE,39.083,-75.433,8.1,62.9908713692946,95.9,,0.0,,
674,994008,FRED HOWARD PARK,FL,28.12,-82.8,33.1,73.53204419889504,103.6,,0.0,,
675,994041,REDWOOD CITY,CA,37.507,-122.2,35.2,58.04804469273743,98.8,,0.0,,
676,997297,CAMBRIDGE  MD,MD,38.57,-76.07,13.3,58.79691876750701,93.4,,0.0,,
677,997301,FT PALASKI,GA,32.03,-80.9,21.6,68.09387186629526,93.2,,0.0,,
678,997346,FT MYERS,FL,26.65,-81.87,38.3,75.31904761904762,96.1,,0.0,,
679,997707,WELLS,ME,43.32,-70.55,-1.5,45.90761904761904,91.9,,0.0,,
680,997347,FERNANDINA BEACH,FL,30.67,-81.47,26.4,72.57130919220056,101.1,,0.0,,
681,997348,KEY WEST,FL,24.55,-81.8,51.8,79.81756373937677,95.0,,0.0,,
682,997380,ADAK ISLAND,AK,51.87,-176.63,18.7,42.01525423728813,64.9,,0.0,,
683,994031,PORT ORFORD,OR,42.74,-124.497,28.4,52.32760563380282,87.1,,0.0,,
684,997382,NIKISKI AK,AK,60.68,-151.4,-5.4,39.74229691876751,70.5,,0.0,,
685,997383,NOME NORTON SOUND,AK,64.5,-165.42,-21.1,30.54775280898876,70.0,,0.0,,
686,997694,DELAWARE CITY,DE,39.58,-75.58,6.6,56.44122562674096,93.2,,0.0,,
687,997687,BURLINGTON DEL RIVER,NJ,40.08,-74.88,7.9,56.098611111111104,95.0,,0.0,,
688,997705,OLD PORT TAMPA,FL,27.85,-82.55,32.9,73.5891364902507,93.7,,0.0,,
689,994975,BEAUFORT  NC,NC,34.2,-76.67,20.3,64.6551532033426,88.0,,0.0,,
690,997270,ATLANTIC CITY,NJ,39.35,-74.42,9.3,55.25793871866295,90.7,,0.0,,
691,997273,BORDEN FLATS LIGHT,MA,41.7,-71.17,7.5,54.24150417827298,90.7,,0.0,,
692,997274,WOODS HOLE,MA,41.52,-70.67,10.9,53.43694444444444,84.4,,0.0,,
693,997275,PORTLAND,ME,43.65,-70.25,1.6,49.0958217270195,90.9,,0.0,,
694,997277,CONIMUCUT LIGHT,RI,41.72,-71.33,8.4,54.00733333333334,88.5,,0.0,,
695,997278,PROVIDENCE,RI,41.8,-71.4,6.4,54.032876712328765,96.3,,0.0,,
696,997279,FALL RIVER,MA,41.7,-71.0,7.2,54.50478873239436,92.7,,0.0,,
697,997280,KINGS POINT,NY,40.8,-73.77,8.8,54.53676880222841,91.8,,0.0,,
698,997281,LEWES,DE,38.78,-75.12,12.4,58.0187675070028,94.6,,0.0,,
699,997282,MONTAUK,NY,41.05,-71.97,10.8,53.58607242339833,84.2,,0.0,,
700,997284,NEW HAVEN,CT,41.28,-72.88,6.4,53.35988857938719,89.2,,0.0,,
701,997285,NEWPORT,RI,41.5,-71.32,9.5,53.09136490250696,84.0,,0.0,,
702,997287,EASTPORT,ME,44.9,-66.98,-0.8,46.402898550724636,83.5,,0.0,,
703,997289,SANDY HOOK,NJ,40.47,-74.0,8.8,53.208668730650146,92.7,,0.0,,
704,997290,BRIDGEPORT,CT,41.17,-73.18,5.0,53.42033426183844,91.6,,0.0,,
705,997296,BALTIMORE  MD,MD,39.27,-76.57,7.0,57.83016759776535,96.3,,0.0,,
706,997300,CHEASAPEAKE CITY,MD,39.52,-75.8,7.5,55.84958217270196,92.7,,0.0,,
707,997302,FRANCIS SCOTT KEY BR,MD,39.22,-76.52,14.7,51.010404624277456,92.7,,0.0,,
708,997304,LEWISETTA  VA,VA,37.98,-76.47,11.3,59.05754985754986,92.8,,0.0,,
709,997305,MONEY POINT  VA,VA,36.77,-76.3,13.3,61.95056497175141,96.1,,0.0,,
710,997307,OREGON INLET MARINA,NC,35.8,-75.53,18.7,62.54832402234637,89.2,,0.0,,
711,997309,SOLOMONS ISLAND,MD,38.32,-76.45,12.4,58.41977715877436,91.6,,0.0,,
712,997312,TOLCHESTER BEACH,MD,39.2,-76.23,9.9,57.050139275766014,91.2,,0.0,,
713,997313,WACHAPREAGUE,VA,37.6,-75.68,14.2,58.96740947075209,95.9,,0.0,,
714,997314,WASHINGTON,DC,38.87,-77.02,9.3,59.175,95.7,,0.0,,
715,997315,YORKTOWN  VA,VA,37.22,-76.48,12.0,60.682758620689654,95.0,,0.0,,
716,997345,CLEARWATER BEACH,FL,27.97,-82.83,33.3,73.44209039548024,92.1,,0.0,,
717,997351,NAPLES,FL,26.12,-81.8,42.3,79.94354243542435,95.9,,0.0,,
718,997352,PANAMA CITY BEACH,FL,30.22,-85.88,18.9,69.23212290502792,93.4,,0.0,,
719,997353,ST PETERSBURG,FL,27.75,-82.62,34.2,74.60642458100558,96.4,,0.0,,
720,997354,TRIDENT PIER,FL,28.42,-80.58,34.0,72.43131672597865,91.2,,0.0,,
721,997356,VACA KEY,FL,24.72,-81.1,47.5,78.78440111420613,89.6,,0.0,,
722,997360,BAYOU GAUCHE,LA,29.77,-90.42,23.5,69.63128491620111,96.6,,0.0,,
723,997361,EAGLE POINT,TX,29.48,-94.92,18.5,70.5550279329609,94.3,,0.0,,
724,997369,PORT ISABEL,TX,26.05,-97.22,27.7,72.91648044692738,92.1,,0.0,,
725,997708,YORK RIVER E RANGE,VA,37.25,-76.33,12.7,60.524512534818946,91.6,,0.0,,
726,998014,WAQUIOT BAY RESERVE,MA,41.583,-70.517,7.3,55.685041551246535,98.1,,0.0,,
727,998017,CHESAPEAKE BAY,VA,37.417,-76.717,8.4,58.9202216066482,95.4,,0.0,,
728,997991,HUDSON RIVER RESERVE,NY,42.017,-73.917,-2.0,51.517355371900834,98.4,,17.66,,
729,998002,JACQUES COUSTEAU RESERVE,NJ,39.533,-74.45,7.7,55.88760330578513,96.8,,22.009999999999998,,
730,722216,NORTH AF AUX,SC,33.615,-81.084,19.8,66.6075,102.4,,515.78,,
731,720386,WILLMAR MUNICIPAL AIRPORT JOH,MN,45.117,-95.133,-20.2,44.1632768361582,98.6,,32596.73999999999,,
732,726225,PLATTSBURGH INTERNATIONAL AIR,NY,44.65,-73.467,-20.9,46.277808219178084,95.0,,57.719999999999985,,
733,723620,SOCORRO MUNICIPAL AP,NM,34.067,-106.9,7.3,58.904383561643826,103.3,,6019.519999999999,,
734,722561,TSTC WACO,TX,31.638,-97.074,12.2,70.29010989010989,107.6,,5599.439999999998,,
735,A00023,WHITEHOUSE NAVAL OUTLYING FIE,FL,30.35,-81.883,21.9,69.26755162241888,99.0,,1216.4900000000002,,
736,A00024,CHOCTAW NAVAL OUTLYING FIELD,FL,30.507,-86.96,18.0,66.0890756302521,95.0,,335.6,,
737,725172,NAVAL AUXILIARY LANDING FIELD,VA,36.695,-76.136,15.1,62.11178082191781,99.0,,137.3,,
738,703926,AKHIOK,AK,56.933,-154.183,8.1,37.40188679245282,71.1,,309.25,,
739,723425,HARRELL FIELD AIRPORT,AR,33.617,-92.767,5.0,63.757808219178095,105.8,,482.52,,
740,726720,RIVERTON REGIONAL AIRPORT,WY,43.064,-108.459,-31.0,44.65631868131869,100.0,508.0,21.120000000000005,,
741,720383,WHITING FIELD NAVAL AIR STATI,FL,30.704,-87.023,18.0,67.64613259668508,100.9,,3822.81,,
742,725196,GRIFFIS AIRFIELD,NY,43.234,-75.412,-17.0,47.78925619834711,93.0,,86.38,,
743,A00021,KEE FIELD AIRPORT,WV,37.601,-81.559,-0.4,54.61608695652174,91.9,,10598.94,,
744,720294,WASHINGTON-WILKES CO ARPT,GA,33.78,-82.816,8.2,62.514794520547945,102.6,,3492.2599999999993,,
745,722244,COLLEGE PARK AP,MD,38.981,-76.922,6.6,56.08259587020648,95.4,,3613.339999999999,,
746,702626,PILOT POINT,AK,57.58,-157.58,-4.0,40.294135802469135,77.0,,1411.4399999999998,,
747,720369,DRIGGS-REED MEMORIAL AIRPORT,ID,43.743,-111.098,-24.0,39.28044692737431,91.9,,214.33,,
748,720373,PLANT CITY MUNICIPAL AIRPORT,FL,28.0,-82.164,32.0,76.11965317919075,100.4,,13698.63,,
749,720374,PETER O KNIGHT AIRPORT,FL,27.916,-82.449,37.4,68.9949152542373,89.6,,4999.499999999998,,
750,722243,RICHMOND COUNTY AIRPORT,NC,34.891,-79.759,12.2,62.49780821917809,98.8,,1444.8999999999996,,
751,722248,SOUTHLAND FIELD AIRPORT,LA,30.131,-93.376,18.0,68.40751445086705,99.7,,2138.7400000000002,,
752,720371,HREE RIVERS MUNICIPAL DR HAIN,MI,41.96,-85.593,-5.8,49.64849315068493,93.9,,19598.039999999997,,
753,722249,HOOK FIELD MUNICIPAL AIRPORT,OH,39.531,-84.395,-3.1,53.051381215469625,95.4,,4024.0900000000006,,
754,742077,ROCKINGHAM COUNTY NC SHILOH A,NC,36.437,-79.851,7.2,57.17799442896936,94.5,,3030.9100000000003,,
755,722253,MOREHOUSE MEMORIAL AIRPORT,LA,32.756,-91.881,10.0,59.42384615384615,95.2,,1306.67,,
756,722252,MYERS FIELD AIRPORT,MN,44.729,-96.266,-17.3,45.34368131868132,100.4,,11308.79,,
757,742079,MASON COUNTY AIRPORT,WV,38.915,-82.099,-0.4,54.45329153605015,95.9,,21197.88,,
758,742078,PLYMOUTH MUNICIPAL AIRPORT,NH,43.779,-71.754,-22.0,45.86675900277008,93.0,,7027.4,,
759,702627,RUBY AIRPORT,AK,64.727,-155.47,-32.1,30.73314121037464,81.0,,11.01,,
760,720362,MAC CRENSHAW MEMORIAL AIRPORT,AL,31.846,-86.611,12.0,63.47863013698631,98.1,,160.23999999999998,,
761,720363,WEEDON FIELD AIRPORT,AL,31.951,-85.129,15.1,66.40794520547945,104.0,,839.6299999999999,,
762,722238,HANCHEY ARMY HELIPORT (FORT R,AL,31.35,-85.667,15.3,66.09806094182827,101.3,,695.4799999999998,,
763,720375,DRUMMOND ISLAND AIRPORT,MI,46.007,-83.743,-16.6,42.25726256983241,85.6,,8220.739999999998,,
764,725292,GRINNELL REGIONAL AIRPORT,IA,41.709,-92.735,-10.3,50.74494382022471,98.8,,5017.44,,
765,725514,WEBSTER NAVAL OUTLYING FIELD,MD,38.142,-76.429,10.9,60.8931506849315,99.0,,40.36,,
766,742010,PORT ANGELES CGAS,WA,48.141,-123.414,20.7,48.62657534246575,85.1,,10826.559999999998,,
767,726764,YELLOWSTONE AIRPORT,MT,44.683,-111.117,5.0,52.216568047337276,87.8,,11998.8,,
768,720361,FLORALA MUNI,AL,31.043,-86.312,17.1,67.48870431893688,100.9,,5932.150000000001,,
769,702685,ATQASUK EDWARD BURNELL SR. ME,AK,70.467,-157.436,-45.9,15.310714285714285,75.9,,302.59999999999997,,
770,720379,WAYNE COUNTY AIRPORT,KY,36.855,-84.856,1.9,56.05536912751678,95.0,,3121.43,,
771,722817,ELLICOTT-B AFA,CO,38.767,-104.3,-18.6,48.4792817679558,97.9,,309.34999999999997,,
772,722823,CAMP DAVID,MD,39.645,-77.468,-4.0,55.18125000000001,88.0,,865.46,,
773,720381,JACK EDWARDS AIRPORT,AL,30.291,-87.672,21.2,68.03812154696132,98.6,,15998.400000000001,1.0,
774,720355,GREATER CUMBERLAND REGIONAL A,MD,39.6,-78.767,-1.1,53.38301369863013,99.0,,11656.439999999999,,
775,724043,EASTON/NEWNAM FIELD AIRPORT,MD,38.804,-76.069,10.4,58.785164835164835,100.4,,23798.5,,
776,722251,RUSTON REGIONAL AIRPORT,LA,32.514,-92.588,9.0,67.2284375,102.7,,6020.65,,
777,722403,SALT POINT,LA,29.562,-91.526,23.0,68.93581661891116,96.1,,74.25999999999998,,
778,720376,THE ALBERTVILLE MUNI ARPT-THO,AL,34.229,-86.256,5.0,60.62920110192839,95.0,,0.0,,
779,703605,PLATINUM AIRPORT,AK,59.011,-161.82,-17.0,36.27382352941176,68.0,,827.5199999999998,,
780,722041,SOUTH LAFOURCHE AIRPORT,LA,29.445,-90.261,25.3,70.5216346153846,96.4,,4443.5199999999995,,
781,703052,KALSKAG AIRPORT,AK,61.536,-160.341,-24.0,33.80947368421054,81.0,,37.14000000000001,,
782,702035,SAVOONGA AIRPORT,AK,63.687,-170.493,-23.1,28.9621052631579,64.0,,5000.66,,
783,700635,GALBRAITH LAKE AIRPORT,AK,68.479,-149.49,-47.2,12.136585365853659,68.0,,1599.84,,
784,723762,SANTA YNEZ AIRPORT,CA,34.607,-120.076,24.8,58.121606648199446,107.6,,21597.839999999997,,
785,725074,QUONSET STATE AIRPORT,RI,41.597,-71.412,8.6,58.21307189542483,95.0,,14598.539999999997,,
786,701045,RED DOG AIRPORT,AK,68.031,-162.903,-25.6,27.38170731707317,73.4,,21797.820000000003,,
787,740030,MICHAEL AAF AIRPORT,UT,40.183,-112.933,3.2,55.266336633663364,102.9,33.4,3800.5599999999995,,
788,702615,WAINWRIGHT AAF AIRPORT,AK,64.838,-147.614,-44.1,28.33873626373626,85.6,6871.8,6413.379999999999,,
789,723034,MACKALL AAF AIRPORT,NC,35.033,-79.5,10.0,62.21483516483517,97.9,,879.1600000000001,,
790,723231,REDSTONE ARMY AIRFIELD,AL,34.679,-86.685,5.0,62.33529411764707,98.2,,2450.2199999999993,,
791,723535,VANCE AIR FORCE BASE,OK,36.333,-97.917,-0.4,60.53434903047092,111.9,22.8,1445.3600000000001,,2.0
792,723894,MAMMOTH YOSEMITE AIRPORT,CA,37.633,-118.85,-13.0,44.78338192419826,89.6,,9998.999999999998,,
793,724057,PHILLIPS ARMY AIRFIELD,MD,39.472,-76.17,4.6,54.79347079037801,95.0,25.2,5444.719999999998,,27.0
794,724295,SPRINGFIELD-BECKLEY MUNICIPAL,OH,39.84,-83.84,-9.9,52.94972527472527,96.1,,25529.399999999994,,
795,725144,MUIR ARMY AIRFIELD (FORT INDI,PA,40.433,-76.567,2.7,53.05041551246537,94.5,11.0,293.93999999999994,,
796,725483,FORT MADISON MUNICIPAL APT,IA,40.659,-91.327,-9.4,56.298648648648644,98.6,,20797.920000000002,,
797,747320,HOLLOMAN AFB AIRPORT,NM,32.85,-106.1,5.2,61.93835227272727,105.8,,1232.8199999999997,,1.0
798,747810,MOODY AFB AIRPORT,GA,30.967,-83.2,18.9,67.46630136986303,103.3,,899.8799999999999,,
799,911977,BRADSHAW ARMY AIRFIELD,HI,19.76,-155.554,30.2,57.56805555555555,81.7,,612.3,,
800,722090,WRIGHT AAF AIRPORT,GA,31.883,-81.567,18.7,66.58928571428571,102.7,,1075.9799999999998,,1.0
801,722275,ANDALUSIA-OPP MUNICIPAL AIRPO,AL,31.309,-86.394,18.0,69.54219178082191,105.1,,106.92000000000002,,
802,702650,EIELSON AFB AIRPORT,AK,64.683,-147.083,-49.2,27.40931506849315,83.8,8622.599999999999,820.3200000000002,,2.0
803,722953,MOJAVE AIRPORT,CA,35.067,-118.15,21.2,63.67916666666667,107.6,,199.98,,
804,725204,BEAVER COUNTY AIRPORT,PA,40.767,-80.4,-2.6,53.665659340659346,97.5,,40995.89999999999,,
805,725354,ELKHART MUNICIPAL AIRPORT,IN,41.717,-85.983,-8.3,51.166101694915255,96.8,,31796.81999999999,,
806,701718,AMBLER AIRPORT,AK,67.1,-157.85,-43.6,25.839999999999996,81.0,,424.9199999999999,,
807,702084,EMMONAK,AK,62.785,-164.491,35.1,51.18,73.0,,199.98,,
808,703057,TOKSOOK BAY AIRPORT,AK,60.541,-165.087,-17.0,32.452542372881354,77.0,,203.47999999999996,,
809,703407,SLEETMUTE AIRPORT,AK,61.717,-157.15,-45.0,30.92642642642643,81.0,,41.68,,
810,720318,GRAHAM MUNICIPAL AIRPORT,TX,33.11,-98.555,9.1,65.43708791208792,110.7,,206.20000000000002,,
811,722333,SAGUACHE MUNICIPAL AIRPORT,CO,38.097,-106.169,-13.0,44.17232876712329,89.6,,19198.08,,
812,722334,BEAUREGARD REGIONAL AIRPORT,LA,30.833,-93.333,13.1,66.95165745856353,100.9,,21438.62,,
813,723144,RURFTON CO-MARCHMAN FLD AP,NC,35.428,-81.935,6.8,58.6041095890411,95.0,,29597.039999999994,,
814,726502,CLINTONVILLE MUNICIPAL AIRPOR,WI,44.614,-88.731,-16.6,38.493119266055054,89.4,,9825.160000000002,,
815,726676,DAWSON COMMUNITY AIRPORT,MT,47.133,-104.8,-25.1,43.465934065934064,104.0,,1224.62,,
816,727503,CAMBRIDGE MUNICIPAL ARPT,MN,45.559,-93.265,-23.8,45.02321428571429,100.4,,35196.47999999999,,
817,A00032,ATKA AIRPORT,AK,52.22,-174.206,28.9,40.928,50.0,,100.79999999999998,,
818,703985,METLAKATLA SEAPLANE BASE,AK,55.131,-131.578,14.0,44.26872246696035,75.0,,1098.68,,
819,720348,BALDWIN COUNTY AIRPORT,GA,33.154,-83.241,12.2,67.64747474747475,109.4,,27197.279999999995,,
820,727449,MOOSE LAKE CARLTON CO ARPT,MN,46.419,-92.804,-27.4,41.446726190476184,96.8,,32996.69999999999,,
821,703050,CAPE HEWENHAM LRRS AIRPORT,AK,58.65,-162.067,-9.6,36.8184135977337,70.9,38.599999999999994,4676.459999999999,,
822,703655,HUSLIA AIRPORT,AK,65.698,-156.351,-51.0,27.864931506849317,82.9,,20.779999999999998,,
823,726130,MT. WASHINGTON OBSERVATORY,NH,44.27,-71.303,-29.2,29.670893371757927,65.3,2754.9999999999995,381.84000000000003,,2.0
824,700001,PORTAGE GLACIER,AK,60.785,-148.839,-18.9,38.07194444444444,73.0,,193.88,,
825,700197,SELAWIK,AK,66.6,-159.986,-45.9,24.629971988795518,77.0,,3805.88,,
826,700632,BUCKLAND AIRPORT,AK,65.983,-161.133,-45.9,25.825988700564967,78.8,,607.76,,
827,700634,UGNU-KUPRAUK AIRPORT,AK,70.331,-149.598,-50.8,14.130769230769229,71.6,,32596.739999999983,,
828,701040,CAPE LISBURNE LRRS AIRPORT,AK,68.867,-166.133,-31.0,22.151032448377578,63.1,211.60000000000005,8609.879999999997,,
829,701170,TIN CITY LRRS AIRPORT,AK,65.563,-167.921,-29.2,23.967032967032967,62.6,212.80000000000004,9620.679999999998,,
830,701195,SHISHMAREF/NEW AIRPORT,AK,66.25,-166.089,-35.0,24.364542936288085,69.1,,15798.72,,
831,701210,POINT LAY LRRS AIRPORT,AK,69.733,-163.005,-50.8,17.311911357340726,77.0,,58494.269999999946,,
832,701335,NOATAK AIRPORT,AK,67.566,-162.975,-44.0,22.19393939393939,73.9,,215.82,,
833,701486,KIVALINA AIRPORT,AK,67.732,-164.548,-38.9,25.31480144404332,70.0,,416.35999999999996,,
834,701625,ANAKTUVUK PASS AIRPORT,AK,68.167,-151.767,-43.1,18.01767955801105,75.9,,10.200000000000001,,
835,701945,ARCTIC VILLAGE AIRPORT,AK,68.115,-145.579,-47.9,17.892241379310338,81.0,,417.76,,
836,701975,EAGLE AIRPORT,AK,64.777,-141.148,-59.1,26.53659217877095,88.0,,22.98,,
837,702005,ST MARY'S AIRPORT,AK,62.062,-163.3,-22.0,31.368219178082192,77.0,,28.379999999999995,,
838,702006,KALTAG AIRPORT,AK,64.327,-158.742,-43.1,26.172077922077918,88.0,,30.479999999999997,,
839,702075,ANVIK AIRPORT,AK,62.65,-160.183,-27.9,31.16458923512748,82.0,,21.3,,
840,702120,CAPE ROMANZOF LRRS ARPT,AK,61.783,-166.033,-13.4,31.19917808219178,69.8,83.7,11785.829999999996,,
841,702186,HOOPER BAY AIRPORT,AK,61.524,-166.147,-22.0,30.830622009569378,68.0,,10199.22,,
842,702220,GALENA AIRPORT,AK,64.737,-156.934,-45.9,26.529392971246004,82.0,,15.920000000000002,,
843,702223,KOYUK AIRPORT,AK,64.935,-161.155,-22.0,31.764779874213836,81.0,,1229.8999999999996,,
844,702315,TATALINA LRRS AIRPORT,AK,62.894,-155.976,-24.0,30.29635854341737,79.7,75.8,4838.94,,
845,702350,SPARREVOHN LRRS AIRPORT,AK,61.1,-155.583,-27.2,32.826027397260276,73.8,727.5999999999999,7450.92,,
846,702490,PUNTILLA LAKE,AK,62.091,-152.735,-27.4,32.63611940298507,77.0,7887.400000000001,10613.66,,
847,702595,SOLDOTNA AIRPORT,AK,60.476,-151.034,-23.1,37.30193370165746,79.0,,237.22000000000008,,
848,702606,CHULITNA,AK,62.826,-149.907,-7.6,24.352830188679242,55.4,14721.2,8199.179999999998,,
849,702645,MCKINLEY NATIONAL PARK AIRPOR,AK,63.733,-148.917,-44.0,26.64951456310679,82.0,,213.90000000000003,,
850,702715,SKELTON AIRPORT,AK,61.949,-147.169,-23.1,27.450274725274728,77.0,,26.440000000000005,,
851,702720,ELMENDORF AFB AIRPORT,AK,61.253,-149.794,-18.9,38.27287671232876,79.7,3654.6000000000004,1038.7199999999998,,
852,702746,BIRCHWOOD AIRPORT,AK,61.416,-149.507,-16.1,37.9967032967033,80.1,,3835.96,,
853,702756,VALDEZ PIONEER FIELD AIRPORT,AK,61.132,-146.244,-9.0,41.33496732026144,75.2,,7461.879999999998,,
854,702758,ALPINE AIRSTRIP,AK,70.344,-150.945,-52.6,14.639393939393939,71.6,,31596.839999999993,,
855,702770,SEWARD AIRPORT,AK,60.128,-149.417,3.0,41.069589041095895,80.1,,1298.52,,
856,703051,HOLY CROSS AIRPORT,AK,62.183,-159.767,-36.0,36.722007722007724,82.9,,221.83999999999992,,
857,703053,RUSSIAN MISSION AIRPORT,AK,61.775,-161.319,-38.2,34.01052631578948,82.0,,1619.5399999999997,,
858,703056,MOUNTAIN VILLAGE AIRPORT,AK,62.095,-163.682,-22.0,21.4036496350365,68.0,,602.4399999999999,,
859,703061,IGIUGIG AIRPORT,AK,59.324,-155.902,-23.1,35.95240963855423,81.0,,236.09999999999997,,
860,703210,DILLINGHAM AIRPORT,AK,59.05,-158.517,-25.6,36.659452054794514,79.0,,251.6,,
861,703330,PORT HEIDEN AIRPORT,AK,56.959,-158.632,-8.0,39.00791788856305,71.1,,2628.38,,
862,703333,CHIGNIK AIRPORT,AK,56.311,-158.373,21.9,45.81284403669726,69.1,,28197.180000000004,,
863,703334,EGEGIK AIRPORT,AK,58.185,-157.386,-11.0,36.4816425120773,73.9,,612.4599999999998,,
864,703606,TOGIAK AIRPORT,AK,59.067,-160.367,-29.9,34.48712871287129,78.1,,453.48,,
865,703621,SELDOVIA AIRPORT,AK,59.443,-151.702,0.0,40.828493150684935,75.0,,84.05999999999999,,
866,703644,NUIQSUT AIRPORT,AK,70.212,-151.002,-54.9,14.507438016528928,73.9,,3007.7999999999997,,
867,703817,ELFIN COVE SEAPLANE BASE,AK,58.192,-136.344,24.8,49.38691983122362,75.2,316.0,1944.6200000000003,,
868,703835,ST. GEORGE AIRPORT,AK,56.6,-169.565,6.1,42.30483091787439,57.9,,39.800000000000004,,
869,703855,KAKE AIRPORT,AK,56.967,-133.9,6.1,44.218539325842706,79.0,,307.41999999999996,,
870,703870,WRANGELL AIRPORT,AK,56.473,-132.387,3.9,45.292602739726036,81.0,,2938.4599999999996,,
871,720151,ALPINE-CASPARIS MUNI ARPT,TX,30.383,-103.683,4.8,63.20794520547946,101.7,,1823.9800000000002,,
872,720170,METROPOLIS MUNICIPAL AIRPORT,IL,37.186,-88.751,-3.6,57.60328767123288,98.6,,5863.1,,
873,720172,MENA INTERMOUNTAIN MUNICIPAL,AR,34.545,-94.203,0.7,61.64563106796116,104.0,,359.46000000000004,,
874,720198,MUNISING LAKESHORE,MI,46.412,-86.65,-11.9,42.35808219178083,91.0,,73.89999999999999,,
875,720258,ISEDOR IVERSON AIRPORT,MN,46.619,-93.31,-29.2,40.173756906077344,93.2,,6199.379999999998,,
876,720261,BRIDGEPORT MUNICIPAL ARPT,TX,33.175,-97.828,10.2,64.73950276243096,110.8,,254.27999999999997,,
877,720265,THOMAS C RUSSELL FLD ARPT,AL,32.915,-85.963,11.5,62.89479452054795,95.0,,6684.239999999999,,
878,720266,WARSAW MUNICIPAL AIRPORT,IN,41.275,-85.84,-9.4,46.355448717948725,95.0,,32596.73999999999,,
879,720267,AUBURN MUNICIPAL AIRPORT,CA,38.955,-121.082,23.0,61.99643835616438,111.2,,0.0,,
880,720268,DCATR CO INDUS AIRPK ARPT,GA,30.983,-84.633,16.7,67.39397260273974,104.7,,5493.58,,
881,720269,BROOKS COUNTY AIRPORT,TX,27.207,-98.121,23.4,71.70231213872832,104.9,,14999.66,,
882,720271,BIG SRNG MCMHN-WRKLE ARPT,TX,32.213,-101.521,7.3,65.63994490358127,107.8,,5815.280000000001,,
883,720272,SKAGIT REGIONAL AIRPORT,WA,48.467,-122.417,3.2,50.33561643835617,87.8,,0.0,,
884,720274,COLUMBUS CO MUNICIPAL ARPT,NC,34.273,-78.715,17.4,63.92328767123288,96.3,,2262.36,,
885,720275,TOLEDO SUBURBAN AIRPORT,MI,41.736,-83.655,-7.6,50.78246575342466,95.0,,35796.41999999999,,
886,720276,EDINBURG INTL AIRPORT,TX,26.442,-98.129,25.5,72.4472463768116,102.6,,1015.74,,
887,720277,SHELBY MUNICIPAL AIRPORT,NC,35.256,-81.601,7.2,59.63543956043956,96.3,,4667.2,,
888,720278,EMPORIA-GRENVLE RGNL ARPT,VA,36.687,-77.483,8.6,59.934210526315795,97.9,,9037.38,,
889,720279,CURTIS L BROWN JR FLD ARPT,NC,34.602,-78.578,15.8,63.68986301369864,99.1,,6255.039999999999,,
890,720283,FILLMORE COUNTY AIRPORT,MN,43.677,-92.18,-22.9,43.78328767123287,93.2,,8002.179999999999,,
891,720284,FITCH H BEACH AIRPORT,MI,42.574,-84.811,-9.0,48.312876712328766,93.7,,11436.619999999999,,
892,720285,MIDDLE PENINSULA REGIONAL AIR,VA,37.521,-76.765,6.4,55.943768996960486,96.3,,55.08,,
893,720286,GRANBURY MUNICIPAL ARPT,TX,32.444,-97.817,10.4,66.32375690607735,109.0,,1245.98,,
894,720287,GRAYSON COUNTY AIRPORT,TX,33.714,-96.674,9.3,65.43342465753425,107.6,,43.300000000000004,,
895,720288,HENDERSON-OXFORD AIRPORT,NC,36.361,-78.529,4.8,56.85698630136987,94.8,,3458.22,,
896,720291,MESQUITE METROPOLITAN ARPT,TX,32.747,-96.531,10.4,66.13021978021979,105.8,,429.05999999999995,,
897,720293,INDEPENDENCE MUNICIPAL APT,IA,42.453,-91.948,-16.4,46.42349570200573,95.7,,18635.600000000002,,
898,720295,HILLSBORO MUNICIPAL ARPT,TX,32.084,-97.097,11.8,67.29438202247191,106.0,,1030.6399999999996,,
899,720297,WILLIAMSBURG-JAMESTOWN APT,VA,37.239,-76.716,15.8,59.31071428571428,100.4,,0.0,,
900,720298,CHEROKEE COUNTY AIRPORT,TX,31.869,-95.218,8.6,66.54392265193371,102.7,,15420.660000000002,,
901,720299,MID-WAY REGIONAL AIRPORT,TX,32.456,-96.913,10.4,66.34917582417584,107.1,,1045.16,,
902,720303,HEARNE MUNICIPAL AIRPORT,TX,30.872,-96.622,14.0,73.04607843137254,109.0,,41.32000000000001,,
903,720305,DECATUR MUNICIPAL AIRPORT,TX,33.254,-97.581,8.2,65.78478873239438,111.4,,51.78,,
904,720306,LEE'S SUMMIT MUNICIPAL APT,MO,38.96,-94.371,-7.6,55.4393351800554,100.9,,664.9000000000001,,
905,720307,MADISON CO EXECUTIVE ARPT,AL,34.861,-86.557,2.5,60.542296918767505,98.8,,10086.02,,
906,720308,MILLARD AIRPORT,NE,41.196,-96.112,-13.5,52.16899441340782,100.9,,8838.279999999999,,
907,720309,MOUNT PLEASANT MUNI ARPT,IA,40.947,-91.511,-7.6,51.679166666666674,98.6,,29397.059999999998,,
908,720311,MOUNT PLEASANT RGNL ARPT,TX,33.096,-94.961,8.1,64.6731506849315,106.3,,7647.999999999999,,
909,720312,PELLA MUNICIPAL AIRPORT,IA,41.4,-92.946,-13.9,49.63123287671232,98.2,,10046.96,,
910,720313,PERRY LEFORS FIELD AIRPORT,TX,35.613,-100.996,-2.2,59.67722222222223,110.3,,8423.88,,
911,720314,PALESTINE MUNICIPAL ARPT,TX,31.78,-95.706,10.4,66.92005494505496,105.8,,47.959999999999994,,
912,720315,PERRYTON OCHILTREE CO ARPT,TX,36.414,-100.75,-6.2,56.73844011142061,108.5,,14.48,,
913,720316,NUECES COUNTY ARIPORT,TX,27.779,-97.691,23.0,72.28778409090907,102.4,,9801.3,,
914,720317,STAFFORD REGIONAL AIRPORT,VA,38.398,-77.456,7.7,59.24692737430168,97.2,,5105.3,,
915,720319,ROBINSON MUNICIPAL AIRPORT,IL,39.016,-87.65,-7.8,52.12556818181818,97.5,,7660.279999999999,,
916,720320,CLEBURNE MUNICIPAL AIRPORT,TX,32.354,-97.434,10.4,67.08523676880223,107.6,,16.18,,
917,720321,CHEBOYGAN COUNTY AIRPORT,MI,45.654,-84.519,-16.6,43.2191135734072,89.6,,40595.93999999998,,
918,720322,SANDPOINT AIRPORT,ID,48.299,-116.56,-7.6,45.13057851239669,96.8,,34596.539999999986,,
919,720323,GILLESPIE CO,TX,30.243,-98.91,10.4,66.36584022038566,103.5,,222.31999999999996,,
920,720324,QUAKERTOWN AIRPORT,PA,40.435,-75.382,-0.4,52.75576923076922,95.0,,0.0,,
921,720326,VINTON VETERANS MEMORIAL AIRP,IA,42.219,-92.026,-16.6,49.48876712328768,100.8,,24008.539999999997,,
922,720327,MENOMONIE MUNICIPAL AIRPORT-S,WI,44.892,-91.868,-21.1,44.32607449856733,95.9,,10646.539999999999,,
923,720328,UPSHUR COUNTY RGNL AIRPORT,WV,39.0,-80.274,-4.0,53.83314917127072,95.0,,37396.25999999999,,
924,720330,MOUNT CARMEL MUNICIPAL AIRPOR,IL,38.607,-87.727,-4.0,56.79141274238228,100.8,,9451.48,,
925,720342,WATONGA AIRPORT,OK,35.864,-98.421,0.9,60.59694444444444,111.6,,7439.26,,
926,720343,WAUPACA MUNICIPAL AIRPORT,WI,44.333,-89.02,-15.0,47.25069637883008,95.5,,9651.66,,
927,720344,CHEROKEE MUNICIPAL AIRPORT/  ,IA,42.732,-95.556,-17.0,46.78375350140056,97.7,,10814.899999999998,,
928,720345,RALPH WENZ FIELD AIRPORT,WY,42.796,-109.807,-23.8,36.42904109589041,89.6,,29197.079999999994,,
929,720351,OSKALOOSA MUNICIPAL AIRPORT,IA,41.226,-92.491,-8.5,51.71236263736264,100.8,,8030.9,,
930,722003,STANTON AIRFIELD,MN,44.476,-93.016,-22.9,44.8074585635359,99.0,,13025.66,,
931,722004,HARRY STERN AIRPORT,ND,46.244,-96.607,-27.4,41.25851648351648,100.4,,39995.999999999985,,
932,722006,QUENTIN AANENSON FIELD AIRPOR,MN,43.621,-96.216,-18.4,43.725833333333334,96.8,,28797.12,,
933,722008,MUSTANG BEACH AIRPORT,TX,27.812,-97.089,22.3,72.16621160409557,92.8,,3453.3399999999997,,
934,722011,KISSIMMEE GATEWAY AIRPORT,FL,28.29,-81.437,28.9,73.3,97.0,,28397.159999999993,,
935,722016,THE FL KEYS MARATHON ARPT,FL,24.726,-81.052,46.0,79.74903581267218,96.1,,271.86,,
936,722031,FOLSOM FIELD AP,AL,34.269,-86.858,1.4,60.73315068493151,95.0,,33996.599999999984,,
937,722032,WASECA MUNICIPAL AIRPORT,MN,44.074,-93.553,-25.6,44.387613293051366,96.8,,26197.379999999997,,
938,722033,GRANITE FALLS MUNI ARPT/LENZE,MN,44.753,-95.556,-22.0,45.34022038567494,102.0,,14431.060000000001,,
939,722034,CHARLOTTE COUNTY AIRPORT,FL,26.917,-81.991,30.0,74.2235457063712,97.0,,331.09999999999997,,
940,722039,FT LAUDER EXECUTIVE ARPT,FL,26.197,-80.171,39.9,77.92576177285319,96.1,,1517.6399999999999,4.0,
941,722042,WOOD COUNTY AIRPORT MINEOLA,TX,32.742,-95.496,10.4,65.45416666666667,105.8,,19598.039999999997,,
942,722044,ADA MUNICIPAL AIRPORT,OK,34.804,-96.671,5.0,60.78835820895522,109.4,,20197.979999999996,,
943,722046,SPACE COAST REGIONAL AIRPORT,FL,28.517,-80.8,33.8,78.76308539944904,100.4,,12798.719999999998,,
944,722049,POMPANO BEACH AIRPARK ARPT,FL,26.25,-80.108,39.9,78.42602739726027,95.0,,310.64,,
945,722052,ALVA REGIONAL AIRPORT,OK,36.773,-98.67,-0.4,60.319944598337955,113.0,,13398.659999999996,,
946,722055,OCALA INTERNATIONAL AIRPORT-J,FL,29.167,-82.233,21.0,70.68164383561644,99.0,,12034.539999999999,,
947,722059,BURLINGTON MUNICIPAL ARPT,WI,42.69,-88.304,-9.0,47.5782122905028,98.8,,28.340000000000003,,
948,722061,COPPER MOUNTAIN,CO,39.467,-106.15,-7.6,35.589473684210525,73.4,,32808.63999999999,,
949,722062,DOUGLAS MUNICIPAL AIRPORT,GA,31.477,-82.861,19.0,67.12829131652661,103.3,,27597.24,,
950,722067,CECIL FIELD AIRPORT,FL,30.219,-81.876,19.4,69.60575342465754,102.2,,31196.879999999986,,
951,722069,DESTIN-FT.WALTON BEACH APT,FL,30.4,-86.472,21.9,71.36739726027398,102.0,,690.4399999999999,,
952,722071,CHICKASHA MUNICIPAL ARPT,OK,35.096,-97.966,4.1,61.27872928176795,110.3,,7052.8600000000015,,
953,722073,SAMPSON COUNTY AIRPORT,NC,34.976,-78.364,15.3,63.4743093922652,99.0,,53.16000000000001,,
954,722074,CARMI MINICIPAL AIRPORT,IL,38.089,-88.123,-4.0,56.43784530386741,98.6,,27797.22,,
955,722076,VERMILION COUNTY AIRPORT,IL,40.2,-87.6,-8.7,52.50344827586207,98.4,,7665.0599999999995,,
956,722078,HALLIBURTON FIELD AIRPORT,OK,34.471,-97.951,5.9,62.86547945205479,111.7,,5244.399999999999,,
957,722079,DAVIDSON COUNTY AIRPORT,NC,35.781,-80.304,7.2,59.23205479452055,96.4,,4473.94,,
958,722091,CLAREMORE REGIONAL AIRPORT,OK,36.294,-95.479,-0.4,58.769505494505495,105.8,,20597.94,,
959,722093,GRAYLING ARMY AIRFIELD,MI,44.68,-84.729,-22.0,43.47254901960784,93.2,,22025.84,,
960,722094,GRAND PRAIRIE MUNICIPAL AIRPO,TX,32.699,-97.047,11.3,68.19342465753424,107.6,,24.66,,
961,722095,GUYMON MUNICIPAL AIRPORT,OK,36.682,-101.505,-2.0,59.24428969359332,108.0,,22.2,,
962,722096,HENDERSON EXECUTIVE ARPT,NV,35.976,-115.133,23.0,67.20317919075146,111.9,,3.96,,
963,722097,HARLAN MUNICIPAL AIRPORT,IA,41.584,-95.339,-16.6,48.410497237569054,100.4,,0.0,,
964,722098,EAST HAMPTON AIRPORT,NY,40.96,-72.252,-2.0,51.85310734463276,89.8,,5942.36,,
965,722101,WOLF CREEK PASS AWOS-3 AIRPOR,CO,37.45,-106.8,-7.6,31.64712328767124,69.8,,34996.499999999985,,
966,722103,ST LUCIE COUNTY INTL ARPT,FL,27.498,-80.377,28.9,74.31620879120878,97.0,,99.82000000000001,2.0,
967,722107,GAINES COUNTY AIRPORT,TX,32.675,-102.654,5.2,63.291758241758245,106.0,,4413.48,,
968,722108,SW FLORIDA INTN AIRPORT,FL,26.536,-81.755,35.1,75.37107438016531,98.1,,332.24,,1.0
969,722112,FOX STEPHENS FIELD - GILMER M,TX,32.699,-94.949,9.5,65.48393351800554,104.7,,5644.799999999999,,
970,722115,SARASOTA/BRADENTON INTL AP,FL,27.401,-82.559,34.0,73.96164383561644,96.1,,106.53999999999999,,
971,722116,ST PETE-CLWTR INTL AIRPORT,FL,27.911,-82.688,33.1,74.05424657534246,96.1,,2278.8599999999997,,
972,722122,WINSTON FIELD AIRPORT,TX,32.693,-100.951,7.9,64.60109890109891,106.3,,7830.339999999998,,
973,722124,HEBRON MUNICIPAL AIRPORT,NE,40.149,-97.587,-13.4,52.69171270718232,103.5,,1641.5999999999997,,
974,722125,SAGNAW CO H.W. BROWNE ARPT,MI,43.433,-83.867,-8.0,48.9441095890411,95.2,,38596.139999999985,,
975,722128,LICONTN-LINCOLN CO RGNL AP,NC,35.483,-81.161,5.5,58.55208913649026,98.1,,13434.519999999999,,
976,722129,MOORHEAD MUNICIPAL AIRPORT,MN,46.839,-96.663,-29.2,40.535439560439556,102.2,,33596.639999999985,,
977,722131,JOHNSTON COUNTY AIRPORT,NC,35.541,-78.39,14.0,60.929476584022034,98.6,,29597.039999999994,,
978,722132,CONCORD REGIONAL AIRPORT,NC,35.39,-80.707,8.6,61.40027397260273,98.6,,20797.919999999995,,
979,722133,SALLISAW MUNICIPAL AIRPORT,OK,35.438,-94.803,3.2,61.52300884955753,104.0,,22797.72,,
980,722143,LANCASTER AIRPORT,TX,32.579,-96.719,11.3,66.81647727272727,107.6,,453.75999999999993,,
981,722144,MAPLE LAKE MUNICIPAL ARPT,MN,45.236,-93.986,-23.8,42.51993865030675,98.6,,21606.359999999997,,
982,722148,STANLEY COUNTY AIRPORT,NC,35.417,-80.151,9.0,59.89671232876713,99.0,,6467.919999999998,,
983,722151,WESTERLY STATE AIRPORT,RI,41.35,-71.799,-5.1,52.516164383561645,91.0,,72.5,,
984,722157,MACOMB MUNICIPAL AIRPORT,IL,40.52,-90.652,-7.6,50.89911764705882,96.1,,9643.68,,
985,722159,MID VALLEY AIRPORT,TX,26.178,-97.973,28.2,73.71945205479452,106.0,,6435.76,,
986,722168,OLIVIA REGIONAL AIRPORT,MN,44.779,-95.033,-18.4,43.29752747252746,98.6,,30996.89999999999,,
987,722169,PECOS MUNICIPAL AIRPORT,TX,31.383,-103.511,10.4,65.90055710306407,110.5,,4810.339999999998,,
988,722172,EDGAR COUNTY AIRPORT,IL,39.7,-87.669,-8.9,52.10027397260275,96.3,,11246.079999999996,,
989,722173,PAULS VALLEY MUNI AIRPORT,OK,34.711,-97.223,5.5,63.07594202898551,111.0,,5447.919999999999,,
990,722174,HALE COUNTY AIRPORT,TX,34.167,-101.717,-0.4,58.855774647887316,103.8,,7016.299999999999,,
991,722177,ANDREWS-MURPHY AIRPORT,NC,35.195,-83.865,0.5,55.97650429799427,92.7,,11472.999999999998,,
992,722179,NEW RICHMOND MUNICIPAL APT,WI,45.15,-92.533,-24.3,42.965753424657535,98.1,,15047.68,,
993,722187,SHAWNEE MUNICIPAL AIRPORT,OK,35.357,-96.943,2.1,60.904109589041106,109.4,,7244.999999999999,,
994,722188,SEARCY MUNICIPAL AIRPORT,AR,35.212,-91.737,1.0,60.833057851239666,100.9,,84.85999999999999,,
995,722192,AVENGER FIELD AIRPORT,TX,32.473,-100.466,10.2,67.00415512465375,111.6,,1420.1799999999998,,
996,722193,PERSON COUNTY AIRPORT,NC,36.285,-78.984,6.8,56.89643835616439,91.4,,27397.259999999995,,
997,722201,SANFORD-LEE COUNTY RGNL ARPT,NC,35.582,-79.101,9.5,59.344109589041096,97.5,,9047.739999999998,,
998,722202,GARNER FIELD AIRPORT,TX,29.211,-99.744,15.1,69.53972602739726,105.1,,420.2,,
999,722203,MONARCH PASS AWOS-3 ARPT     ,CO,38.483,-106.317,-9.4,30.640960451977396,69.8,,28397.159999999996,,
1000,722204,TRI-TOWNSHIP AIRPORT,IL,42.046,-90.108,-18.4,47.89813664596273,96.8,,25997.399999999994,,
1001,722208,ORCAS ISLAND AIRPORT,WA,48.708,-122.911,14.0,51.04109589041095,84.2,,44195.57999999997,,
1002,722211,THOMAS COUNTY AIRPORT,NE,41.964,-100.569,-10.3,49.27827298050139,104.4,,12016.180000000002,,
1003,722212,ST AUGUSTINE AIRPORT,FL,29.959,-81.34,25.0,69.89148264984226,100.9,,284.85999999999996,,
1004,722213,LEESBURG REGIONAL AIRPORT,FL,28.821,-81.81,28.9,72.44027397260274,98.1,,116.44,,
1005,722214,MOORE COUNTY AIRPORT,TX,35.858,-102.013,-3.5,56.79693593314763,104.7,,7812.379999999999,,
1006,722241,WAYNE MUNICIPAL AIRPORT,NE,42.242,-96.983,-16.6,48.7508875739645,104.2,,11217.779999999999,,
1007,722247,SOMERSET AIRPORT,NJ,40.624,-74.669,1.0,53.630410958904115,100.9,,87.93999999999998,,
1008,722279,PRYOR FIELD REGIONAL ARPT,AL,34.653,-86.945,10.0,61.11868131868132,98.1,11.0,305.86,,
1009,722285,GADSDEN MUNICIPAL AIRPORT,AL,33.967,-86.083,9.0,60.94438356164384,97.0,,2699.659999999999,,
1010,722314,ACADIANA REGIONAL AIRPORT,LA,30.038,-91.884,19.9,68.54246575342468,97.0,,157.23,,
1011,722324,MIDLAND AIRPARK,TX,32.036,-102.101,9.9,66.08159340659341,106.2,,5404.539999999999,,
1012,722329,HARRY P WILLIAMS MEMO ARPT,LA,29.717,-91.333,23.0,63.330081300813,91.9,,2824.539999999999,,
1013,722332,TOMAHAWK REGIONAL AIRPORT,WI,45.469,-89.806,-31.0,40.915068493150685,93.0,,0.0,,
1014,722338,JIM HOGG COUNTY AIRPORT,TX,27.349,-98.737,24.1,71.63626373626374,105.8,,8428.02,,
1015,722341,ORMOND BEACH MUNICIPAL AIRPOR,FL,29.296,-81.113,26.6,73.11842900302115,98.6,,14798.519999999997,,
1016,722342,TRACY MUNICIPAL AIRPORT,MN,44.249,-95.607,-18.4,46.1292899408284,98.6,,16431.86,,
1017,722343,SOUTH HAVEN AREA REGIONAL AIR,MI,42.351,-86.256,-3.3,49.65095890410959,93.4,,38796.11999999997,,
1018,722348,HATTIESBURG-LAUREL RGNL AP,MS,31.467,-89.333,16.0,64.84645892351274,104.0,,2269.34,,
1019,722357,HRDY-ANRES FD NTCHZ-ADAMS COU,MS,31.617,-91.283,14.0,65.26657381615598,97.0,,1284.1599999999999,,
1020,722361,NEW SMYRNA BEACH MUNICIPAL AI,FL,29.054,-80.948,28.4,72.82422360248447,98.6,,11798.819999999996,,
1021,722362,SULPHUR SPRINGS MUNICIPAL AIR,TX,33.167,-95.617,10.2,66.12219178082192,106.0,,61.21999999999999,,
1022,722363,EDWARDS COUNTY AIRPORT,TX,29.947,-100.173,8.6,67.12222222222222,102.2,,25.740000000000002,,
1023,722427,CLOVER FIELD AIRPORT,TX,29.519,-95.242,16.0,70.70357142857142,104.0,,57.260000000000005,,
1024,722429,HOOKS MEMORIAL AIRPT,TX,30.068,-95.556,15.1,70.27917808219179,107.1,,63.699999999999996,,
1025,722447,HUNTSVILLE MUNICIPAL ARPT,TX,30.744,-95.586,14.0,70.43434065934065,111.0,,114.83999999999997,,
1026,722469,CAMPBELL FLD-CORSICANA MU,TX,32.031,-96.399,12.9,68.05424657534248,106.0,,262.31999999999994,,
1027,722479,ARLINGTON MUNICIPAL AIRPORT,TX,32.664,-97.094,10.9,67.58219178082193,109.0,,260.52000000000004,,
1028,722489,TERRELL MUNICIPAL AIRPORT,TX,32.71,-96.267,10.9,66.36712328767122,107.1,,57.0,,
1029,722499,A L MANGHAM JR RGNL ARPT,TX,31.578,-94.709,10.0,66.06666666666668,102.9,,68.86,,
1030,722524,ARANSAS COUNTY AIRPORT,TX,28.084,-97.046,19.9,72.59424657534247,99.0,,49.54,,
1031,722537,KRVL MUNI/LUIS SHRER FD AP,TX,29.983,-99.083,11.7,66.7608815426997,103.8,,8619.979999999998,,
1032,722539,SAN MARCOS MUNICIPAL ARPT,TX,29.891,-97.864,15.8,70.28472222222221,105.1,,31.139999999999997,,
1033,722541,MCKINNEY MUNICIPAL ARPT,TX,33.19,-96.591,10.0,65.48191780821918,108.0,,75.12,,
1034,722542,BURNET MUNICIPAL CRADOCK FIEL,TX,30.741,-98.235,12.0,68.25013698630137,107.1,,35.72,,
1035,722543,SUGAR LAND REGIONAL ARPT,TX,29.622,-95.657,17.1,71.16821917808221,105.1,,60.0,,
1036,722547,GEORGETOWN MUNICIPAL ARPT,TX,30.679,-97.679,12.9,68.7627397260274,109.9,,42.11999999999999,,
1037,722552,GAINESVILLE MUNICIPAL ARPT,TX,33.651,-97.197,8.1,63.61095890410959,109.6,,444.87999999999994,,
1038,722563,MC GREGOR EXECUTIVE ARPT,TX,31.485,-97.316,12.0,68.3146005509642,107.1,,36.02,,
1039,722575,KILLEEN MUNICIPAL AIRPORT,TX,31.083,-97.683,12.0,68.43462603878118,107.1,,31.999999999999996,,
1040,722577,DRAUGHON-MILLER CNTRL TX RGNL,TX,31.15,-97.417,10.9,67.93506849315071,107.1,,39.940000000000005,,
1041,722587,COX FIELD AIRPORT,TX,33.633,-95.45,6.1,64.38712328767124,107.1,,75.35999999999999,,
1042,722588,MAJORS AIRPORT,TX,33.068,-96.065,8.8,64.8649315068493,108.7,,246.12000000000003,,
1043,722589,DENTON MUNICIPAL AIRPORT,TX,33.206,-97.199,10.0,65.83452054794522,111.0,,55.28000000000001,,
1044,722593,FORT WORTH SPINKS AIRPORT,TX,32.565,-97.308,10.4,67.15534246575342,109.4,,1418.62,,
1045,722594,FORT WORTH ALLIANCE ARPT,TX,32.973,-97.318,10.0,67.42383561643835,109.9,,247.32,,1.0
1046,722598,ADDISON AIRPORT,TX,32.969,-96.836,9.5,68.09835616438355,107.6,,1204.4199999999998,1.0,
1047,722599,DALLAS EXECUTIVE AIRPORT,TX,32.681,-96.868,10.0,67.0290410958904,108.0,,72.53999999999999,,
1048,722616,TERRELL COUNTY AIRPORT,TX,30.048,-102.213,12.9,67.94493150684931,109.9,,37.84,,
1049,722637,HEMPHILL COUNTY AIRPORT,TX,35.9,-100.4,-7.8,60.16461988304094,112.3,,13202.48,,
1050,722648,ODESSA-SCHLEMEYER FLD ARPT,TX,31.921,-102.387,9.0,66.16273972602738,106.0,,16.04,,
1051,722666,BROWNWOOD REGIONAL AIRPORT,TX,31.8,-98.95,10.4,61.86419753086418,104.0,,0.0,,
1052,722676,ARTESIA MUNICIPAL AIRPORT,NM,32.853,-104.468,5.0,62.801928374655645,107.6,,13.26,,
1053,722677,CLINES CORNERS,NM,35.003,-105.663,-9.9,49.1645429362881,96.1,,234.25999999999993,,
1054,722683,SIERRA BLANCA RGNL AIRPORT,NM,33.45,-105.517,-0.4,52.72849315068492,91.4,,36.26,,
1055,722689,CLOVIS MUNICIPAL AIRPORT,NM,34.433,-103.083,0.0,57.681318681318686,106.0,,19.040000000000003,,
1056,722693,ALAMOGORDO-WHITE SANDS RGL AI,NM,32.84,-105.991,8.6,61.805234159779616,104.0,,18.580000000000002,,
1057,722695,LAS CRUCES INTL AIRPORT,NM,32.283,-106.917,13.1,63.386027397260285,107.2,,13.540000000000001,,
1058,722725,DEMING MUNICIPAL AIRPORT,NM,32.262,-107.721,9.0,61.99561643835616,107.1,,23.02,,
1059,722728,NOGALES INTERNATIONAL ARPT,AZ,31.421,-110.846,16.0,64.08082191780821,106.0,,40.42000000000001,,
1060,722747,SAFFORD REGIONAL AIRPORT,AZ,32.855,-109.635,21.0,65.57774725274726,108.0,,419.0399999999999,,
1061,722748,CASA GRANDE MUNICIPAL ARPT,AZ,32.95,-111.767,26.1,71.90810055865921,111.9,,5611.040000000001,,
1062,722749,CHANDLER MUNICIPAL AIRPORT,AZ,33.269,-111.813,33.8,77.26033057851241,114.8,,2999.7,,
1063,722764,WINDOW ROCK AIRPORT,AZ,35.658,-109.061,-5.1,50.450410958904115,98.1,,33.22,,
1064,722783,FALCON FIELD AIRPORT,AZ,33.467,-111.733,37.0,74.5545205479452,113.0,,15.399999999999999,,
1065,722784,PHOENIX DEER VALLEY ARPT,AZ,33.688,-112.082,30.9,73.03506849315069,114.1,,216.94,,
1066,722787,GLENDALE MUNICIPAL AIRPORT,AZ,33.527,-112.295,30.2,77.73119777158774,113.0,,2199.7799999999997,,
1067,722788,PHOENIX GOODYEAR AIRPORT,AZ,33.417,-112.383,33.8,77.03901098901098,114.8,,4399.5599999999995,,
1068,722789,SCOTTSDALE AIRPORT,AZ,33.623,-111.911,32.0,74.19999999999999,114.1,,417.52,,
1069,722868,PALM SPRINGS INTL AIRPORT,CA,33.822,-116.504,35.1,77.63232876712331,116.1,,2.4200000000000004,,
1070,722869,RIVERSIDE MUNICIPAL ARPT,CA,33.952,-117.439,34.0,66.95945205479451,109.9,,7.82,,
1071,722885,SANTA MONICA MUNI AIRPORT,CA,34.016,-118.451,39.9,62.8641095890411,100.9,,10.64,,
1072,722887,BRACKETT FIELD AIRPORT,CA,34.1,-117.783,30.2,70.29275862068965,107.6,,1799.82,,
1073,722895,LOMPOC AIRPORT,CA,34.667,-120.467,27.0,55.8122754491018,93.0,,5.939999999999999,,
1074,722897,SAN LUIS CO REGIONAL ARPT,CA,35.237,-120.641,28.9,58.68602739726028,105.1,,16.14,,
1075,722899,CHINO AIRPORT,CA,33.975,-117.636,30.9,66.74027397260274,111.9,,9.979999999999999,,
1076,722903,MONTGOMERY FIELD AIRPORT,CA,32.816,-117.139,37.9,64.32301369863013,99.0,,11.360000000000001,,
1077,722904,BROWN FIELD MUNICIPAL ARPT,CA,32.572,-116.979,34.0,63.32410958904109,100.0,,29.49,,
1078,722907,GILLESPIE FIELD AIRPORT,CA,32.826,-116.973,32.0,64.0032876712329,100.4,,4799.5199999999995,,
