[{"name":"EAGLE POINT","lat":29.48,"lon":-94.92,"min":56.8,"mean_temp":62.0,"max":74.3,"year":"2022","mo":"10","da":"20"},{"name":"PORT ARANSAS","lat":27.833,"lon":-97.067,"min":62.4,"mean_temp":65.5,"max":71.6,"year":"2022","mo":"10","da":"20"},{"name":"ROCKPORT","lat":28.017,"lon":-97.05,"min":80.8,"mean_temp":81.1,"max":81.5,"year":"2022","mo":"10","da":"15"},{"name":"MUSTANG ISLAND A85A          ","lat":27.733,"lon":-96.183,"min":43.0,"mean_temp":53.0,"max":61.0,"year":"2022","mo":"02","da":"16"},{"name":"ATHENS MUNICIPAL AIRPORT","lat":32.164,"lon":-95.828,"min":43.0,"mean_temp":53.0,"max":61.0,"year":"2022","mo":"02","da":"16"},{"name":"LONGVIEW GREGG COUNTY AP","lat":32.385,"lon":-94.712,"min":43.0,"mean_temp":53.0,"max":61.0,"year":"2022","mo":"02","da":"16"},{"name":"COLLEGE STATION EASTERWOOD FL","lat":30.589,"lon":-96.365,"min":43.0,"mean_temp":53.0,"max":61.0,"year":"2022","mo":"02","da":"16"},{"name":"MINERAL WELLS FT WOLTERS AF","lat":32.85,"lon":-98.05,"min":43.0,"mean_temp":53.0,"max":61.0,"year":"2022","mo":"02","da":"16"},{"name":"PALO PINTO DEMPSEY AF","lat":32.783,"lon":-98.267,"min":43.0,"mean_temp":53.0,"max":61.0,"year":"2022","mo":"02","da":"16"},{"name":"STEPHENVILLE CLARK FIELD","lat":32.215,"lon":-98.178,"min":43.0,"mean_temp":53.0,"max":61.0,"year":"2022","mo":"02","da":"16"}]